{
"type": "FeatureCollection",
                                                                                
"features": [
{ "type": "Feature", "properties": { "name": "Willow Creek", "cfr": "9.85", "state": "CA", "county": "Humboldt|Trinity", "within": null, "contains": null }, "geometry": { "type": "Point", "coordinates": [ -123.49351538552051, 40.674997527383496 ] } },
{ "type": "Feature", "properties": { "name": "McDowell Valley", "cfr": "9.36", "state": "CA", "county": "Mendocino", "within": "Mendocino|North Coast", "contains": null }, "geometry": { "type": "Point", "coordinates": [ -123.392161251103005, 39.440802399625802 ] } },
{ "type": "Feature", "properties": { "name": "Potter Valley", "cfr": "9.82", "state": "CA", "county": "Mendocino", "within": "Mendocino|North Coast", "contains": null }, "geometry": { "type": "Point", "coordinates": [ -123.392161251103005, 39.440802399625802 ] } },
{ "type": "Feature", "properties": { "name": "Mendocino Ridge", "cfr": "9.158", "state": "CA", "county": "Mendocino", "within": "Mendocino|North Coast", "contains": "Anderson Valley" }, "geometry": { "type": "Point", "coordinates": [ -123.392161251103005, 39.440802399625802 ] } },
{ "type": "Feature", "properties": { "name": "Dos Rios", "cfr": "9.175", "state": "CA", "county": "Mendocino", "within": null, "contains": null }, "geometry": { "type": "Point", "coordinates": [ -123.392161251103005, 39.440802399625802 ] } },
{ "type": "Feature", "properties": { "name": "Anderson Valley", "cfr": "9.86", "state": "CA", "county": "Mendocino", "within": "Mendocino |North Coast", "contains": "Mendocino Ridge" }, "geometry": { "type": "Point", "coordinates": [ -123.392161251103005, 39.440802399625802 ] } },
{ "type": "Feature", "properties": { "name": "Mendocino", "cfr": "9.93", "state": "CA", "county": "Mendocino", "within": "North Coast", "contains": "Anderson Valley|Cole Ranch|McDowell Valley|Mendocino Ridge|Potter Valley|Redwood Valley|Yorkville Highlands" }, "geometry": { "type": "Point", "coordinates": [ -123.392161251103005, 39.440802399625802 ] } },
{ "type": "Feature", "properties": { "name": "Eagle Peak Mendocino County", "cfr": "9.237", "state": "CA", "county": "Mendocino", "within": "North Coast", "contains": null }, "geometry": { "type": "Point", "coordinates": [ -123.392161251103005, 39.440802399625802 ] } },
{ "type": "Feature", "properties": { "name": "Yorkville Highlands", "cfr": "9.159", "state": "CA", "county": "Mendocino", "within": "Mendocino|North Coast", "contains": null }, "geometry": { "type": "Point", "coordinates": [ -123.392161251103005, 39.440802399625802 ] } },
{ "type": "Feature", "properties": { "name": "Cole Ranch", "cfr": "9.42", "state": "CA", "county": "Mendocino", "within": "Mendocino|North Coast", "contains": null }, "geometry": { "type": "Point", "coordinates": [ -123.392161251103005, 39.440802399625802 ] } },
{ "type": "Feature", "properties": { "name": "Redwood Valley", "cfr": "9.153", "state": "CA", "county": "Mendocino", "within": "Mendocino|North Coast", "contains": null }, "geometry": { "type": "Point", "coordinates": [ -123.392161251103005, 39.440802399625802 ] } },
{ "type": "Feature", "properties": { "name": "Covelo", "cfr": "9.187", "state": "CA", "county": "Mendocino", "within": null, "contains": null }, "geometry": { "type": "Point", "coordinates": [ -123.392161251103005, 39.440802399625802 ] } },
{ "type": "Feature", "properties": { "name": "Eola-Amity Hills", "cfr": "9.202", "state": "OR", "county": "Polk|Yamhill", "within": "Willamette Valley", "contains": null }, "geometry": { "type": "Point", "coordinates": [ -123.362380224808504, 45.06763541953795 ] } },
{ "type": "Feature", "properties": { "name": "Ribbon Ridge", "cfr": "9.182", "state": "OR", "county": "Yamhill", "within": "Chehalem Mountains|Willamette Valley", "contains": null }, "geometry": { "type": "Point", "coordinates": [ -123.310223320291996, 45.232310702116798 ] } },
{ "type": "Feature", "properties": { "name": "McMinnville", "cfr": "9.181", "state": "OR", "county": "Yamhill", "within": "Willamette Valley", "contains": null }, "geometry": { "type": "Point", "coordinates": [ -123.310223320291996, 45.232310702116798 ] } },
{ "type": "Feature", "properties": { "name": "Dundee Hills", "cfr": "9.180", "state": "OR", "county": "Yamhill", "within": "Willamette Valley", "contains": null }, "geometry": { "type": "Point", "coordinates": [ -123.310223320291996, 45.232310702116798 ] } },
{ "type": "Feature", "properties": { "name": "Yamhill-Carlton", "cfr": "9.183", "state": "OR", "county": "Washington|Yamhill", "within": "Willamette Valley", "contains": null }, "geometry": { "type": "Point", "coordinates": [ -123.204564940043497, 45.396030176977199 ] } },
{ "type": "Feature", "properties": { "name": "Elkton Oregon", "cfr": "9.239", "state": "OR", "county": "Douglas", "within": "Southern Oregon|Umpqua Valley", "contains": null }, "geometry": { "type": "Point", "coordinates": [ -123.164099252913999, 43.277911238338703 ] } },
{ "type": "Feature", "properties": { "name": "Red Hill Douglas County, Oregon", "cfr": "9.190", "state": "OR", "county": "Douglas", "within": "Southern Oregon|Umpqua Valley", "contains": null }, "geometry": { "type": "Point", "coordinates": [ -123.164099252913999, 43.277911238338703 ] } },
{ "type": "Feature", "properties": { "name": "Umpqua Valley", "cfr": "9.89", "state": "OR", "county": "Douglas", "within": "Southern Oregon", "contains": "Elkton Oregon|Red Hill Douglas County Oregon" }, "geometry": { "type": "Point", "coordinates": [ -123.164099252913999, 43.277911238338703 ] } },
{ "type": "Feature", "properties": { "name": "Southern Oregon", "cfr": "9.179", "state": "OR", "county": "Douglas|Jackson|Josephine", "within": null, "contains": "Applegate Valley|Elkton Oregon|Red Hill Douglas County, Oregon|Rogue Valley|Umpqua Valley" }, "geometry": { "type": "Point", "coordinates": [ -123.148800268965999, 42.691412868162899 ] } },
{ "type": "Feature", "properties": { "name": "Rogue Valley", "cfr": "9.132", "state": "OR", "county": "Jackson|Josephine", "within": "Southern Oregon", "contains": "Applegate Valley" }, "geometry": { "type": "Point", "coordinates": [ -123.141150776992006, 42.398163683074998 ] } },
{ "type": "Feature", "properties": { "name": "Applegate Valley", "cfr": "9.165", "state": "OR", "county": "Jackson|Josephine", "within": "Rogue Valley|Southern Oregon", "contains": null }, "geometry": { "type": "Point", "coordinates": [ -123.141150776992006, 42.398163683074998 ] } },
{ "type": "Feature", "properties": { "name": "Pine Mountain-Cloverdale Peak", "cfr": "9.220", "state": "CA", "county": "Mendocino|Sonoma", "within": "North Coast|Northern Sonoma", "contains": "Alexander Valley" }, "geometry": { "type": "Point", "coordinates": [ -123.140554623534996, 38.984818844803755 ] } },
{ "type": "Feature", "properties": { "name": "Trinity Lakes", "cfr": "9.184", "state": "CA", "county": "Trinity", "within": null, "contains": null }, "geometry": { "type": "Point", "coordinates": [ -123.112932933303, 40.650141858478797 ] } },
{ "type": "Feature", "properties": { "name": "Fountaingrove District", "cfr": "9.250", "state": "CA", "county": "Sonoma", "within": "North Coast", "contains": null }, "geometry": { "type": "Point", "coordinates": [ -122.888947995967001, 38.5288352899817 ] } },
{ "type": "Feature", "properties": { "name": "Sonoma Coast", "cfr": "9.116", "state": "CA", "county": "Sonoma", "within": "North Coast", "contains": "Bennett Valley|Chalk Hill|Green Valley of Russian River Valley|Los Carneros|Northern Sonoma|Russian River Valley|Sonoma Valley" }, "geometry": { "type": "Point", "coordinates": [ -122.888947995967001, 38.5288352899817 ] } },
{ "type": "Feature", "properties": { "name": "Bennett Valley", "cfr": "9.142", "state": "CA", "county": "Sonoma", "within": "North Coast|Sonoma Coast|Sonoma Mountain|Sonoma Valley", "contains": null }, "geometry": { "type": "Point", "coordinates": [ -122.888947995967001, 38.5288352899817 ] } },
{ "type": "Feature", "properties": { "name": "Dry Creek Valley", "cfr": "9.64", "state": "CA", "county": "Sonoma", "within": "North Coast|Northern Sonoma", "contains": "Rockpile" }, "geometry": { "type": "Point", "coordinates": [ -122.888947995967001, 38.5288352899817 ] } },
{ "type": "Feature", "properties": { "name": "Sonoma Mountain", "cfr": "9.102", "state": "CA", "county": "Sonoma", "within": "North Coast|Sonoma Valley", "contains": "Bennett Valley" }, "geometry": { "type": "Point", "coordinates": [ -122.888947995967001, 38.5288352899817 ] } },
{ "type": "Feature", "properties": { "name": "Chalk Hill", "cfr": "9.52", "state": "CA", "county": "Sonoma", "within": "North Coast|Northern Sonoma|Russian River Valley|Sonoma Coast", "contains": null }, "geometry": { "type": "Point", "coordinates": [ -122.888947995967001, 38.5288352899817 ] } },
{ "type": "Feature", "properties": { "name": "Russian River Valley", "cfr": "9.66", "state": "CA", "county": "Sonoma", "within": "North Coast|Northern Sonoma|Sonoma Coast", "contains": "Alexander Valley|Chalk Hill|Green Valley of Russian River Valley" }, "geometry": { "type": "Point", "coordinates": [ -122.888947995967001, 38.5288352899817 ] } },
{ "type": "Feature", "properties": { "name": "Rockpile", "cfr": "9.173", "state": "CA", "county": "Sonoma", "within": "North Coast|Northern Sonoma", "contains": "Dry Creek Valley" }, "geometry": { "type": "Point", "coordinates": [ -122.888947995967001, 38.5288352899817 ] } },
{ "type": "Feature", "properties": { "name": "Alexander Valley", "cfr": "9.53", "state": "CA", "county": "Sonoma", "within": "North Coast|Northern Sonoma", "contains": "Pine Mountain--Cloverdale Peak|Russian River Valley" }, "geometry": { "type": "Point", "coordinates": [ -122.888947995967001, 38.5288352899817 ] } },
{ "type": "Feature", "properties": { "name": "Sonoma Valley", "cfr": "9.29", "state": "CA", "county": "Sonoma", "within": "North Coast|Sonoma Coast", "contains": "Bennett Valley|Los Carneros|Moon Mountain District Sonoma County|Sonoma Mountain" }, "geometry": { "type": "Point", "coordinates": [ -122.888947995967001, 38.5288352899817 ] } },
{ "type": "Feature", "properties": { "name": "Knights Valley", "cfr": "9.76", "state": "CA", "county": "Sonoma", "within": "North Coast|Northern Sonoma", "contains": null }, "geometry": { "type": "Point", "coordinates": [ -122.888947995967001, 38.5288352899817 ] } },
{ "type": "Feature", "properties": { "name": "Northern Sonoma", "cfr": "9.70", "state": "CA", "county": "Sonoma", "within": "North Coast", "contains": "Alexander Valley|Chalk Hill|Dry Creek|Green Valley of Russian River Valley|Knights Valley|Pine Mountain-Cloverdale Peak|Rockpile|Russian River Valley|Sonoma Coast" }, "geometry": { "type": "Point", "coordinates": [ -122.888947995967001, 38.5288352899817 ] } },
{ "type": "Feature", "properties": { "name": "Fort Ross-Seaview", "cfr": "9.221", "state": "CA", "county": "Sonoma", "within": "North Coast|Sonoma Coast", "contains": null }, "geometry": { "type": "Point", "coordinates": [ -122.888947995967001, 38.5288352899817 ] } },
{ "type": "Feature", "properties": { "name": "Green Valley of Russian River", "cfr": "9.57", "state": "CA", "county": "Sonoma", "within": "North Coast|Northern Sonoma Valley|Russian River Valley|Sonoma Coast", "contains": null }, "geometry": { "type": "Point", "coordinates": [ -122.888947995967001, 38.5288352899817 ] } },
{ "type": "Feature", "properties": { "name": "Moon Mountain District Sonoma County", "cfr": "9.231", "state": "CA", "county": "Sonoma", "within": "North Coast|Sonoma Valley", "contains": null }, "geometry": { "type": "Point", "coordinates": [ -122.888947995967001, 38.5288352899817 ] } },
{ "type": "Feature", "properties": { "name": "Chehalem Mountains", "cfr": "9.205", "state": "OR", "county": "Clackamas|Washington|Yamhill", "within": "Willamette Valley", "contains": "Ribbon Ridge" }, "geometry": { "type": "Point", "coordinates": [ -122.876509500916654, 45.326826779711972 ] } },
{ "type": "Feature", "properties": { "name": "Willamette Valley", "cfr": "9.90", "state": "OR", "county": "Benton|Clackamas|Lane|Linn|Marion|Multnomah|Polk|Washington|Yamhill", "within": null, "contains": "Chehalem Mountains|Dundee Hills|Eola-Amity Hills|McMinnville|Ribbon Ridge|Yamhill-Carlton" }, "geometry": { "type": "Point", "coordinates": [ -122.872561168571337, 44.916873366589712 ] } },
{ "type": "Feature", "properties": { "name": "Red Hills Lake County", "cfr": "9.169", "state": "CA", "county": "Lake", "within": "Clear Lake|North Coast", "contains": null }, "geometry": { "type": "Point", "coordinates": [ -122.753390893258995, 39.100862543562897 ] } },
{ "type": "Feature", "properties": { "name": "Clear Lake", "cfr": "9.99", "state": "CA", "county": "Lake", "within": "North Coast", "contains": "Big Valley District–Lake County|High Valley|Kelsey Bench–Lake County|Red Hills Lake County" }, "geometry": { "type": "Point", "coordinates": [ -122.753390893258995, 39.100862543562897 ] } },
{ "type": "Feature", "properties": { "name": "High Valley", "cfr": "9.189", "state": "CA", "county": "Lake", "within": "Clear Lake|North Coast", "contains": null }, "geometry": { "type": "Point", "coordinates": [ -122.753390893258995, 39.100862543562897 ] } },
{ "type": "Feature", "properties": { "name": "Kelsey Bench–Lake County", "cfr": "9.233", "state": "CA", "county": "Lake", "within": "Clear Lake|North Coast", "contains": null }, "geometry": { "type": "Point", "coordinates": [ -122.753390893258995, 39.100862543562897 ] } },
{ "type": "Feature", "properties": { "name": "Guenoc Valley", "cfr": "9.26", "state": "CA", "county": "Lake", "within": "North Coast", "contains": null }, "geometry": { "type": "Point", "coordinates": [ -122.753390893258995, 39.100862543562897 ] } },
{ "type": "Feature", "properties": { "name": "Big Valley District-Lake County", "cfr": "9.232", "state": "CA", "county": "Lake", "within": "|Clear LakeNorth Coast", "contains": null }, "geometry": { "type": "Point", "coordinates": [ -122.753390893258995, 39.100862543562897 ] } },
{ "type": "Feature", "properties": { "name": "Benmore Valley", "cfr": "9.138", "state": "CA", "county": "Lake", "within": "North Coast", "contains": null }, "geometry": { "type": "Point", "coordinates": [ -122.753390893258995, 39.100862543562897 ] } },
{ "type": "Feature", "properties": { "name": "North Coast", "cfr": "9.30", "state": "CA", "county": "Lake|Marin|Mendocino|Napa|Solano|Sonoma", "within": null, "contains": "Alexander Valley|Anderson Valley|Atlas Peak|Benmore Valley|Bennett Valley|Big Valley District–Lake County|Calistoga|Chalk Hill|Chiles Valley|Clear Lake|Cole Ranch|Coombsville|Diamond Mountain District|Dry Creek Valley|Eagle Peak Mendocino County|Fort Ross-Seaview|Fountaingrove District|Green Valley of the Russian River Valley|Guenoc Valley|High Valley|Howell Mountain|Kelsey Bench–Lake County|Knights Valley|Los Carneros|McDowell Valley|Mendocino|Mendocino Ridge|Moon Mountain|District Sonoma|County|Mt. Veeder|Napa Valley|Northern Sonoma|Oak Knoll District of Napa Valley|Oakville|Pine Mountain—Cloverdale Peak|Potter Valley|Red Hills Lake County|Redwood Valley|Rockpile|Russian River Valley|Rutherford|Solano County Green Valley|Sonoma Coast|Sonoma Mountain|Sonoma Valley|Spring Mountain District|St. Helena|Stags Leap District|Suisun Valley|Wild Horse Valley|Yorkville Highlands|Yountville" }, "geometry": { "type": "Point", "coordinates": [ -122.668718683230495, 38.655213572087455 ] } },
{ "type": "Feature", "properties": { "name": "Puget Sound", "cfr": "9.151", "state": "WA", "county": "Clallam|Island|Jefferson|King|Kitsap|Mason|Pierce|San Juan|Skagit|Snohomish|Thurston|Whatcom", "within": null, "contains": null }, "geometry": { "type": "Point", "coordinates": [ -122.565296283120674, 47.857254022954343 ] } },
{ "type": "Feature", "properties": { "name": "Seiad Valley", "cfr": "9.148", "state": "CA", "county": "Siskiyou", "within": null, "contains": null }, "geometry": { "type": "Point", "coordinates": [ -122.539911703735996, 41.5927837174834 ] } },
{ "type": "Feature", "properties": { "name": "St. Helena", "cfr": "9.149", "state": "CA", "county": "Napa", "within": "Napa Valley|North Coast", "contains": null }, "geometry": { "type": "Point", "coordinates": [ -122.330013196078994, 38.508511112554203 ] } },
{ "type": "Feature", "properties": { "name": "Spring Mountain District", "cfr": "9.143", "state": "CA", "county": "Napa", "within": "Napa Valley|North Coast", "contains": null }, "geometry": { "type": "Point", "coordinates": [ -122.330013196078994, 38.508511112554203 ] } },
{ "type": "Feature", "properties": { "name": "Rutherford", "cfr": "9.133", "state": "CA", "county": "Napa", "within": "Napa Valley|North Coast", "contains": null }, "geometry": { "type": "Point", "coordinates": [ -122.330013196078994, 38.508511112554203 ] } },
{ "type": "Feature", "properties": { "name": "Stags Leap District", "cfr": "9.117", "state": "CA", "county": "Napa", "within": "Napa Valley|North Coast", "contains": null }, "geometry": { "type": "Point", "coordinates": [ -122.330013196078994, 38.508511112554203 ] } },
{ "type": "Feature", "properties": { "name": "Yountville", "cfr": "9.160", "state": "CA", "county": "Napa", "within": "Napa Valley|North Coast", "contains": null }, "geometry": { "type": "Point", "coordinates": [ -122.330013196078994, 38.508511112554203 ] } },
{ "type": "Feature", "properties": { "name": "Mt. Veeder", "cfr": "9.123", "state": "CA", "county": "Napa", "within": "Napa Valley|North Coast", "contains": null }, "geometry": { "type": "Point", "coordinates": [ -122.330013196078994, 38.508511112554203 ] } },
{ "type": "Feature", "properties": { "name": "Atlas Peak", "cfr": "9.140", "state": "CA", "county": "Napa", "within": "Napa Valley|North Coast", "contains": null }, "geometry": { "type": "Point", "coordinates": [ -122.330013196078994, 38.508511112554203 ] } },
{ "type": "Feature", "properties": { "name": "Howell Mountain", "cfr": "9.94", "state": "CA", "county": "Napa", "within": "Napa Valley|North Coast", "contains": null }, "geometry": { "type": "Point", "coordinates": [ -122.330013196078994, 38.508511112554203 ] } },
{ "type": "Feature", "properties": { "name": "Oakville", "cfr": "9.134", "state": "CA", "county": "Napa", "within": "Napa Valley|North Coast", "contains": null }, "geometry": { "type": "Point", "coordinates": [ -122.330013196078994, 38.508511112554203 ] } },
{ "type": "Feature", "properties": { "name": "Napa Valley", "cfr": "9.23", "state": "CA", "county": "Napa", "within": "North Coast", "contains": "Atlas Peak|Calistoga|Chiles Valley|Coombsville|Diamond Mountain District|Howell Mountain|Los Carneros|Mt. Veeder|Oak Knoll District of Napa Valley|Oakville|Rutherford|Spring Mountain District|St. Helena|Stags Leap District|Wild Horse Valley|Yountville" }, "geometry": { "type": "Point", "coordinates": [ -122.330013196078994, 38.508511112554203 ] } },
{ "type": "Feature", "properties": { "name": "Chiles Valley", "cfr": "9.154", "state": "CA", "county": "Napa", "within": "Napa Valley|North Coast", "contains": null }, "geometry": { "type": "Point", "coordinates": [ -122.330013196078994, 38.508511112554203 ] } },
{ "type": "Feature", "properties": { "name": "Calistoga", "cfr": "9.209", "state": "CA", "county": "Napa", "within": "Napa Valley|North Coast", "contains": null }, "geometry": { "type": "Point", "coordinates": [ -122.330013196078994, 38.508511112554203 ] } },
{ "type": "Feature", "properties": { "name": "Diamond Mountain District", "cfr": "9.166", "state": "CA", "county": "Napa", "within": "Napa Valley|North Coast", "contains": null }, "geometry": { "type": "Point", "coordinates": [ -122.330013196078994, 38.508511112554203 ] } },
{ "type": "Feature", "properties": { "name": "Oak Knoll District of Napa Valley", "cfr": "9.161", "state": "CA", "county": "Napa", "within": "Napa Valley|North Coast", "contains": null }, "geometry": { "type": "Point", "coordinates": [ -122.330013196078994, 38.508511112554203 ] } },
{ "type": "Feature", "properties": { "name": "Coombsville", "cfr": "9.223", "state": "CA", "county": "Napa", "within": "Napa Valley|North Coast", "contains": null }, "geometry": { "type": "MultiPolygon", "coordinates": [ [ [ [ -122.219971646786504, 38.341809316228193 ], [ -122.214942025543166, 38.337987452134641 ], [ -122.207545607001762, 38.335823082825982 ], [ -122.202885358062559, 38.32844155254579 ], [ -122.207305527447403, 38.315710850910449 ], [ -122.202785867346961, 38.301357967012557 ], [ -122.205736997038315, 38.28398742148952 ], [ -122.21874769003405, 38.265205339386966 ], [ -122.248654394925381, 38.279777729894448 ], [ -122.284499309949993, 38.281359905828253 ], [ -122.284779911068838, 38.281821052729825 ], [ -122.28513071176954, 38.282282216227557 ], [ -122.285411320384299, 38.282743361557344 ], [ -122.285516531154826, 38.282964703909876 ], [ -122.285656827094854, 38.283222940768134 ], [ -122.285773728421532, 38.283471950289822 ], [ -122.285867214122874, 38.2837670617212 ], [ -122.28579686077552, 38.284182013660676 ], [ -122.285796763787431, 38.284440216454207 ], [ -122.285597795844879, 38.28463382053949 ], [ -122.28543390152997, 38.284891983526101 ], [ -122.285340264724155, 38.284993397488407 ], [ -122.285129619103472, 38.285122447209076 ], [ -122.285071088128191, 38.285205426533928 ], [ -122.28474343593696, 38.285352889686735 ], [ -122.284404082571712, 38.285500348966458 ], [ -122.284123245610957, 38.28560171454842 ], [ -122.283819030373806, 38.285647744280773 ], [ -122.283655228328968, 38.285656923535285 ], [ -122.283397797058655, 38.285739850377347 ], [ -122.28311693878365, 38.28588732116912 ], [ -122.282917978966495, 38.286034813019732 ], [ -122.282683883754189, 38.28626528888082 ], [ -122.282566829790383, 38.286394358918315 ], [ -122.282613533171755, 38.286624909556735 ], [ -122.282707033281795, 38.286864694190292 ], [ -122.282788856946269, 38.28704914648722 ], [ -122.282858957887228, 38.287288924752907 ], [ -122.282929059286133, 38.287528702967485 ], [ -122.282928963661305, 38.287759241026833 ], [ -122.282917137170003, 38.288063548149943 ], [ -122.282928753282803, 38.288266424725073 ], [ -122.282881867811412, 38.288469285779769 ], [ -122.282916846347362, 38.288764383756885 ], [ -122.282928477870001, 38.28893037422646 ], [ -122.282893307726283, 38.289096352281987 ], [ -122.282823028377379, 38.289280764032441 ], [ -122.282682526462025, 38.289511264599227 ], [ -122.282542027536607, 38.289732543468219 ], [ -122.282354725496475, 38.289953809535234 ], [ -122.28215570603291, 38.29021195818784 ], [ -122.28194501611145, 38.290396331148784 ], [ -122.281769423158266, 38.290589934897007 ], [ -122.281652352701954, 38.290737446946409 ], [ -122.281500123556185, 38.291014050383161 ], [ -122.281347877163228, 38.291327539671968 ], [ -122.281219071545237, 38.291548820133755 ], [ -122.281160462191167, 38.291788563163429 ], [ -122.28116030836361, 38.292138980736212 ], [ -122.281148481909824, 38.292424844409098 ], [ -122.281218517958635, 38.292812167653402 ], [ -122.281370546796197, 38.293005861881412 ], [ -122.281440644766818, 38.293254862262451 ], [ -122.281557539748889, 38.293522318581289 ], [ -122.281697877748229, 38.293697566100981 ], [ -122.281861610882018, 38.293891262892267 ], [ -122.282060417077005, 38.294158741116107 ], [ -122.282165661542919, 38.294315535466183 ], [ -122.282224113051768, 38.294444652503635 ], [ -122.282341043986435, 38.294638335906249 ], [ -122.282364376468379, 38.294804329422995 ], [ -122.282305744822537, 38.295099401954083 ], [ -122.282165222269924, 38.295348344669037 ], [ -122.282024679062644, 38.295643394750691 ], [ -122.281872476751204, 38.295837004840891 ], [ -122.281732003009324, 38.295966067386999 ], [ -122.281544706583887, 38.2961320028421 ], [ -122.281556336156157, 38.296297993233253 ], [ -122.281626461838897, 38.296491664320151 ], [ -122.281661514854704, 38.296611553615186 ], [ -122.281696552059685, 38.296768328927733 ], [ -122.281860319769123, 38.296897475077813 ], [ -122.28212938368074, 38.297072757223894 ], [ -122.282351649753409, 38.29722958310316 ], [ -122.282480322167174, 38.297340275880593 ], [ -122.282667472911655, 38.297524756228135 ], [ -122.282831236343768, 38.297672344024214 ], [ -122.282983306252135, 38.297801485479567 ], [ -122.283111957802731, 38.297967506592435 ], [ -122.28320551190231, 38.298115075327601 ], [ -122.28334582866141, 38.298373314306097 ], [ -122.283474470762314, 38.298566999523281 ], [ -122.283556313148225, 38.298742229430864 ], [ -122.283532830446433, 38.298935874945244 ], [ -122.283275310776219, 38.299120237800963 ], [ -122.283064609475986, 38.299276947940868 ], [ -122.282736901878849, 38.299396740514659 ], [ -122.282338968948793, 38.299544177725863 ], [ -122.281976168406715, 38.299627072660911 ], [ -122.281613355067037, 38.299737630979941 ], [ -122.281203764399024, 38.299774403059246 ], [ -122.28085270446033, 38.299765082762811 ], [ -122.280630405098094, 38.299672804624215 ], [ -122.280349612384384, 38.299543623263467 ], [ -122.280033672520375, 38.299506646086542 ], [ -122.279811353878245, 38.299460473909022 ], [ -122.27960079278381, 38.299294425208359 ], [ -122.27936679010746, 38.299211362739975 ], [ -122.279097634472492, 38.299229725887052 ], [ -122.278840119976621, 38.299377192967412 ], [ -122.27867620375082, 38.299561573745315 ], [ -122.278664379477632, 38.299819772277438 ], [ -122.278675981295265, 38.300031870346814 ], [ -122.278675859160515, 38.300290072386296 ], [ -122.278687443642468, 38.300539056440826 ], [ -122.278605409834583, 38.300788012240496 ], [ -122.278464841846699, 38.301083057739625 ], [ -122.27846473212945, 38.301313595232251 ], [ -122.278523099443191, 38.301617922440471 ], [ -122.278534657332258, 38.30192223544411 ], [ -122.278593064773531, 38.30214356910335 ], [ -122.278698243522697, 38.302447910320346 ], [ -122.278826802303556, 38.302807587441421 ], [ -122.278838387689419, 38.303056571374228 ], [ -122.279060651916438, 38.303241067834293 ], [ -122.279259490382671, 38.303471664412108 ], [ -122.279364746491026, 38.303619239538435 ], [ -122.279505094305506, 38.303803710894151 ], [ -122.279610338650031, 38.303978950279969 ], [ -122.279809176626642, 38.304218767398034 ], [ -122.279972924055144, 38.304421687998065 ], [ -122.280124977842036, 38.304606161990677 ], [ -122.280312099632155, 38.304882860827902 ], [ -122.280663184020668, 38.304892182773422 ], [ -122.28100260217451, 38.304818506921627 ], [ -122.281143082026091, 38.304717109960094 ], [ -122.281248565855435, 38.30435750115219 ], [ -122.281190205279927, 38.304007067942912 ], [ -122.281377599077445, 38.303665924882999 ], [ -122.281436221264471, 38.303416960754262 ], [ -122.281506601815607, 38.303038898868159 ], [ -122.281565155081637, 38.302946700108905 ], [ -122.281717321249943, 38.302872970153196 ], [ -122.281939643540895, 38.302937581705784 ], [ -122.282103429388727, 38.303057505903979 ], [ -122.282243786936391, 38.303232752513203 ], [ -122.282267067172512, 38.303527846764844 ], [ -122.282372274855746, 38.303804520153449 ], [ -122.282372146241826, 38.304108829529504 ], [ -122.282360384931735, 38.304247148807072 ], [ -122.282430516440911, 38.304450040658345 ], [ -122.282418696811163, 38.30472668236078 ], [ -122.282348385647907, 38.30494797928165 ], [ -122.282196137409557, 38.305206139910766 ], [ -122.281880021738942, 38.3055195844709 ], [ -122.281470254480794, 38.305888331148523 ], [ -122.281083885375949, 38.306266304437777 ], [ -122.28069751639174, 38.306635054931796 ], [ -122.280299411116985, 38.307068351192292 ], [ -122.279959859988267, 38.307409448183854 ], [ -122.279690555793195, 38.30768601433288 ], [ -122.279397829863214, 38.307990237401071 ], [ -122.279105054099247, 38.308395896092001 ], [ -122.278917650603645, 38.308709370742264 ], [ -122.278765365041252, 38.309004412667932 ], [ -122.278496010994317, 38.309363969362344 ], [ -122.278296903108284, 38.309668217925051 ], [ -122.277980751486993, 38.309981651677056 ], [ -122.277875292605941, 38.310239820821458 ], [ -122.277699600926539, 38.310516411080748 ], [ -122.277535629842376, 38.310756118769632 ], [ -122.277313147122982, 38.310977364931176 ], [ -122.277184290177971, 38.311207861617547 ], [ -122.277113897681829, 38.311549034395306 ], [ -122.2772659408827, 38.311770397809404 ], [ -122.27740630353486, 38.311945649951021 ], [ -122.277640313190446, 38.312093266586224 ], [ -122.27790942724414, 38.312259336544116 ], [ -122.27803810154812, 38.312406919865815 ], [ -122.278166727661599, 38.312655939339379 ], [ -122.278178303480814, 38.31292336587434 ], [ -122.27814307556865, 38.313163113625855 ], [ -122.278061043505602, 38.313375182554509 ], [ -122.277744888306799, 38.31366095100288 ], [ -122.277440471195845, 38.313872950402754 ], [ -122.277206278842073, 38.314084971091944 ], [ -122.277007175621861, 38.314343109795168 ], [ -122.276772939074604, 38.314638122898806 ], [ -122.276690804489462, 38.315043841830196 ], [ -122.276596973606829, 38.315431113982299 ], [ -122.276667025957167, 38.315781552496304 ], [ -122.276783879553719, 38.316168891742933 ], [ -122.276982668088692, 38.316556256785859 ], [ -122.276947425340936, 38.316814446967221 ], [ -122.276959056903877, 38.316961994260524 ], [ -122.276841962150698, 38.317054171907174 ], [ -122.276724903985468, 38.317072577643707 ], [ -122.276525925365334, 38.317063292642189 ], [ -122.276338670325913, 38.317017125173592 ], [ -122.276174806566445, 38.317007850867974 ], [ -122.276057776473607, 38.316970927095205 ], [ -122.275835369565641, 38.316998519228932 ], [ -122.275648034446476, 38.317109115712462 ], [ -122.275425550581019, 38.317284250642459 ], [ -122.275261600036131, 38.317440961577539 ], [ -122.275144435048219, 38.317662238135483 ], [ -122.275144338858851, 38.317846667585172 ], [ -122.275261307558125, 38.318003471404033 ], [ -122.275401686900281, 38.31816028282384 ], [ -122.275506970610252, 38.318280196644238 ], [ -122.27562393602831, 38.318446221563754 ], [ -122.275717505901895, 38.318584574295386 ], [ -122.275764212899944, 38.318805904905119 ], [ -122.275764108803997, 38.319008777262802 ], [ -122.275787410456729, 38.319220878728252 ], [ -122.275763905340753, 38.319405300486828 ], [ -122.27559995551988, 38.31955279036081 ], [ -122.275424285397349, 38.319727940552156 ], [ -122.27533054709582, 38.319912339039668 ], [ -122.27534215674784, 38.32009677228492 ], [ -122.27531863107555, 38.320318079797843 ], [ -122.275341946206552, 38.320502516897903 ], [ -122.275330125883087, 38.320723828262786 ], [ -122.275353426820189, 38.320935929750348 ], [ -122.275283112257554, 38.321092671484514 ], [ -122.275154293613213, 38.321203286427355 ], [ -122.274943588742261, 38.321212437778129 ], [ -122.274768005357458, 38.321212379058807 ], [ -122.274498684564605, 38.321387496378748 ], [ -122.274311252637162, 38.321654855546058 ], [ -122.274217474573348, 38.321903803333441 ], [ -122.27419392519684, 38.322161996405875 ], [ -122.274158684704659, 38.322392521083351 ], [ -122.274123424234318, 38.322659931598423 ], [ -122.274135041150345, 38.322825921942865 ], [ -122.274146603821976, 38.323093348383289 ], [ -122.274099637065305, 38.323360754871601 ], [ -122.274017596701043, 38.323545156170532 ], [ -122.27394727676834, 38.323701897024044 ], [ -122.274099330654465, 38.323932485566644 ], [ -122.274122599403313, 38.324199915948675 ], [ -122.274134186931335, 38.324421235019273 ], [ -122.274274502347239, 38.324716369550003 ], [ -122.274274413782123, 38.32488235584858 ], [ -122.274356248781544, 38.325085255772095 ], [ -122.274426309405854, 38.325417252116814 ], [ -122.274461310574409, 38.325638579025444 ], [ -122.274484639909971, 38.325795351747061 ], [ -122.274039682027478, 38.326016515714052 ], [ -122.273301971623965, 38.326403562819138 ], [ -122.27264617807036, 38.326827520059958 ], [ -122.271896573337443, 38.327518862166883 ], [ -122.271334356524463, 38.328044281624059 ], [ -122.270865839021383, 38.328477518338737 ], [ -122.270291862678576, 38.329067478543145 ], [ -122.26976478156476, 38.329528353240981 ], [ -122.269284527209024, 38.329980021971956 ], [ -122.268734002251009, 38.330468547344921 ], [ -122.268206861431977, 38.330993965041927 ], [ -122.267644608692038, 38.331491702056347 ], [ -122.267094049757802, 38.331998662459299 ], [ -122.266496624229006, 38.332551708453799 ], [ -122.265981195587514, 38.333021791979832 ], [ -122.265407180439638, 38.3335563990126 ], [ -122.258319111510701, 38.340220343314975 ], [ -122.25433521394298, 38.343906952834075 ], [ -122.252144894058233, 38.344744965614474 ], [ -122.251687958554541, 38.345067473156448 ], [ -122.251090655001533, 38.345214696436507 ], [ -122.250458383975399, 38.345177463973599 ], [ -122.249826233736442, 38.345001906719318 ], [ -122.249498285522009, 38.345103159414116 ], [ -122.249181980998529, 38.345278189146519 ], [ -122.248526095713331, 38.345462247165102 ], [ -122.248034220738347, 38.345554181163493 ], [ -122.247741643794669, 38.345378806384339 ], [ -122.24747242874264, 38.345267994328303 ], [ -122.247308531602556, 38.345231013992638 ], [ -122.246992346736405, 38.3452677164953 ], [ -122.24625444828331, 38.34549782128866 ], [ -122.245669023244673, 38.345451369018626 ], [ -122.244896076904084, 38.345589230247057 ], [ -122.244708250973488, 38.346096296085904 ], [ -122.244415097479447, 38.34653874817279 ], [ -122.244157269875799, 38.346769128110196 ], [ -122.219971646786504, 38.341809316228193 ] ] ] ] } },
{ "type": "Feature", "properties": { "name": "Manton Valley", "cfr": "9.236", "state": "CA", "county": "Shasta|Tehama", "within": null, "contains": null }, "geometry": { "type": "Point", "coordinates": [ -122.137869207625499, 40.444257114586151 ] } },
{ "type": "Feature", "properties": { "name": "Wild Horse Valley", "cfr": "9.124", "state": "CA", "county": "Napa|Solano", "within": "Napa Valley|North Coast|Solano County|Green Valley", "contains": null }, "geometry": { "type": "Point", "coordinates": [ -122.128575148935496, 38.394222382740352 ] } },
{ "type": "Feature", "properties": { "name": "Inwood Valley", "cfr": "9.226", "state": "CA", "county": "Shasta", "within": null, "contains": null }, "geometry": { "type": "Point", "coordinates": [ -122.041070572668005, 40.763212201057797 ] } },
{ "type": "Feature", "properties": { "name": "Santa Cruz Mountains", "cfr": "9.31", "state": "CA", "county": "San Mateo|Santa Clara|Santa Cruz", "within": null, "contains": "Ben Lomond Mountain" }, "geometry": { "type": "Point", "coordinates": [ -122.008346537473344, 37.236484671122234 ] } },
{ "type": "Feature", "properties": { "name": "Ben Lomond Mountain", "cfr": "9.118", "state": "CA", "county": "Santa Cruz", "within": "Santa Cruz Mountains", "contains": null }, "geometry": { "type": "Point", "coordinates": [ -122.001661813224999, 37.0568917780353 ] } },
{ "type": "Feature", "properties": { "name": "Lamorinda", "cfr": "9.254", "state": "CA", "county": "Contra Costa", "within": "Central Coast|San Francisco Bay", "contains": null }, "geometry": { "type": "Point", "coordinates": [ -121.931082234339996, 37.914737204356001 ] } },
{ "type": "Feature", "properties": { "name": "Suisun Valley", "cfr": "9.45", "state": "CA", "county": "Solano", "within": "North Coast", "contains": null }, "geometry": { "type": "Point", "coordinates": [ -121.927137101791999, 38.279933652926502 ] } },
{ "type": "Feature", "properties": { "name": "Solano County Green Valley", "cfr": "9.44", "state": "CA", "county": "Solano", "within": "North Coast", "contains": "Wild Horse Valley" }, "geometry": { "type": "Point", "coordinates": [ -121.927137101791999, 38.279933652926502 ] } },
{ "type": "Feature", "properties": { "name": "San Francisco Bay", "cfr": "9.157", "state": "CA", "county": "Alameda|Contra Costa|San Benito|San Francisco|San Mateo|Santa Clara|Santa Cruz|Solano", "within": "Central Coast", "contains": "Lamorinda|Livermore Valley|Pacheco Pass|San Ysidro District|Santa Clara Valley" }, "geometry": { "type": "Point", "coordinates": [ -121.912125173126512, 37.489030967972951 ] } },
{ "type": "Feature", "properties": { "name": "Livermore Valley", "cfr": "9.46", "state": "CA", "county": "Alameda|Contra Costa", "within": "Central Coast|San Francisco Bay", "contains": null }, "geometry": { "type": "Point", "coordinates": [ -121.909435664145008, 37.780670396931697 ] } },
{ "type": "Feature", "properties": { "name": "Dunnigan Hills", "cfr": "9.145", "state": "CA", "county": "Yolo", "within": null, "contains": null }, "geometry": { "type": "Point", "coordinates": [ -121.902116028799995, 38.686734970419302 ] } },
{ "type": "Feature", "properties": { "name": "Capay Valley", "cfr": "9.176", "state": "CA", "county": "Yolo", "within": null, "contains": null }, "geometry": { "type": "Point", "coordinates": [ -121.902116028799995, 38.686734970419302 ] } },
{ "type": "Feature", "properties": { "name": "Clarksburg", "cfr": "9.95", "state": "CA", "county": "Yolo", "within": null, "contains": "Merritt Island" }, "geometry": { "type": "Point", "coordinates": [ -121.902116028799995, 38.686734970419302 ] } },
{ "type": "Feature", "properties": { "name": "Merritt Island", "cfr": "9.68", "state": "CA", "county": "Yolo", "within": "Clarksburg", "contains": null }, "geometry": { "type": "Point", "coordinates": [ -121.902116028799995, 38.686734970419302 ] } },
{ "type": "Feature", "properties": { "name": "San Ysidro District", "cfr": "9.130", "state": "CA", "county": "Santa Clara", "within": "Central Coast|San Francisco Bay|Santa Clara Valley", "contains": null }, "geometry": { "type": "Point", "coordinates": [ -121.693585655380005, 37.231630872233701 ] } },
{ "type": "Feature", "properties": { "name": "Santa Clara Valley", "cfr": "9.126", "state": "CA", "county": "Alameda|San Benito|Santa Clara", "within": "Central Coast|San Francisco Bay", "contains": "Pacheco Pass|San Ysidro District" }, "geometry": { "type": "Point", "coordinates": [ -121.551780519920669, 37.161316411571299 ] } },
{ "type": "Feature", "properties": { "name": "Central Coast", "cfr": "9.75", "state": "CA", "county": "Alameda|Contra Costa|Monterey|San Benito|San Francisco|San Luis Obispo|San Mateo|Santa Barbara|Santa Clara|Santa Cruz", "within": null, "contains": "Adelaida District|Arroyo Grande|Arroyo Seco|Ballard Canyon|Carmel Valley|Chalone|Cienega Valley|Creston District|Edna Valley|El Pomar District|Hames Valley|Happy Canyon of Santa Barbara|Lamorinda|Lime Kiln Valley|Livermore Valley|Los Olivos District|Monterey|Mt. Harlan|Pacheco Pass|Paicines|Paso Robles|Paso Robles Estrella District|Paso Robles Geneseo District|Paso Robles Highlands District|Paso Robles Willow Creek District|San Antonio Valley|San Benito|San Bernabe|San Francisco Bay|San Juan Creek|San Lucas|San Miguel District|San Ysidro District|Santa Clara Valley|Santa Lucia Highlands|Santa Margarita Ranch|Santa Maria Valley|Santa Ynez Valley|Sta. Rita Hills|Templeton Gap District|York Mountain" }, "geometry": { "type": "Point", "coordinates": [ -121.503338214863902, 36.791144954566647 ] } },
{ "type": "Feature", "properties": { "name": "North Yuba", "cfr": "9.106", "state": "CA", "county": "Yuba", "within": "Sierra Foothills", "contains": null }, "geometry": { "type": "Point", "coordinates": [ -121.350115055844995, 39.269376491872102 ] } },
{ "type": "Feature", "properties": { "name": "Cosumnes River", "cfr": "9.198", "state": "CA", "county": "Sacramento", "within": "Lodi", "contains": null }, "geometry": { "type": "Point", "coordinates": [ -121.337311845974995, 38.454537571321602 ] } },
{ "type": "Feature", "properties": { "name": "Alta Mesa", "cfr": "9.195", "state": "CA", "county": "Sacramento", "within": "Lodi", "contains": null }, "geometry": { "type": "Point", "coordinates": [ -121.337311845974995, 38.454537571321602 ] } },
{ "type": "Feature", "properties": { "name": "Sloughhouse", "cfr": "9.201", "state": "CA", "county": "Sacramento", "within": "Lodi", "contains": null }, "geometry": { "type": "Point", "coordinates": [ -121.337311845974995, 38.454537571321602 ] } },
{ "type": "Feature", "properties": { "name": "Lodi", "cfr": "9.107", "state": "CA", "county": "Sacramento|San Joaquin", "within": null, "contains": "Alta Mesa|Borden Ranch|Clements Hills|Cosumnes River|Jahant|Mokelumne River|Sloughhouse" }, "geometry": { "type": "Point", "coordinates": [ -121.303618088700489, 38.194151731408255 ] } },
{ "type": "Feature", "properties": { "name": "Borden Ranch", "cfr": "9.196", "state": "CA", "county": "Sacramento|San Joaquin", "within": "Lodi", "contains": null }, "geometry": { "type": "Point", "coordinates": [ -121.303618088700489, 38.194151731408255 ] } },
{ "type": "Feature", "properties": { "name": "Jahant", "cfr": "9.199", "state": "CA", "county": "Sacramento|San Joaquin", "within": "Lodi", "contains": null }, "geometry": { "type": "Point", "coordinates": [ -121.303618088700489, 38.194151731408255 ] } },
{ "type": "Feature", "properties": { "name": "Clements Hills", "cfr": "9.197", "state": "CA", "county": "San Joaquin", "within": "Lodi", "contains": null }, "geometry": { "type": "Point", "coordinates": [ -121.269924331425997, 37.9337658914949 ] } },
{ "type": "Feature", "properties": { "name": "River Junction", "cfr": "9.164", "state": "CA", "county": "San Joaquin", "within": null, "contains": null }, "geometry": { "type": "Point", "coordinates": [ -121.269924331425997, 37.9337658914949 ] } },
{ "type": "Feature", "properties": { "name": "Mokelumne River", "cfr": "9.200", "state": "CA", "county": "San Joaquin", "within": "Lodi", "contains": null }, "geometry": { "type": "Point", "coordinates": [ -121.269924331425997, 37.9337658914949 ] } },
{ "type": "Feature", "properties": { "name": "Santa Lucia Highlands", "cfr": "9.139", "state": "CA", "county": "Monterey", "within": "Central Coast|Monterey", "contains": null }, "geometry": { "type": "Point", "coordinates": [ -121.240381400889007, 36.217822460681603 ] } },
{ "type": "Feature", "properties": { "name": "Hames Valley", "cfr": "9.147", "state": "CA", "county": "Monterey", "within": "Central Coast|Monterey", "contains": null }, "geometry": { "type": "Point", "coordinates": [ -121.240381400889007, 36.217822460681603 ] } },
{ "type": "Feature", "properties": { "name": "San Bernabe", "cfr": "9.171", "state": "CA", "county": "Monterey", "within": "Central Coast|Monterey", "contains": null }, "geometry": { "type": "Point", "coordinates": [ -121.240381400889007, 36.217822460681603 ] } },
{ "type": "Feature", "properties": { "name": "San Lucas", "cfr": "9.56", "state": "CA", "county": "Monterey", "within": "Central Coast|Monterey", "contains": null }, "geometry": { "type": "Point", "coordinates": [ -121.240381400889007, 36.217822460681603 ] } },
{ "type": "Feature", "properties": { "name": "San Antonio Valley", "cfr": "9.194", "state": "CA", "county": "Monterey", "within": "Central Coast", "contains": null }, "geometry": { "type": "Point", "coordinates": [ -121.240381400889007, 36.217822460681603 ] } },
{ "type": "Feature", "properties": { "name": "Monterey", "cfr": "9.98", "state": "CA", "county": "Monterey", "within": "Central Coast", "contains": "Arroyo Seco|Hames Valley|San Bernabe|San Lucas|Santa Lucia|Highlands" }, "geometry": { "type": "Point", "coordinates": [ -121.240381400889007, 36.217822460681603 ] } },
{ "type": "Feature", "properties": { "name": "Arroyo Seco", "cfr": "9.59", "state": "CA", "county": "Monterey", "within": "Central Coast|Monterey", "contains": null }, "geometry": { "type": "Point", "coordinates": [ -121.240381400889007, 36.217822460681603 ] } },
{ "type": "Feature", "properties": { "name": "Carmel Valley", "cfr": "9.58", "state": "CA", "county": "Monterey", "within": "Central Coast", "contains": null }, "geometry": { "type": "Point", "coordinates": [ -121.240381400889007, 36.217822460681603 ] } },
{ "type": "Feature", "properties": { "name": "Chalone", "cfr": "9.24", "state": "CA", "county": "Monterey|San Benito", "within": "Central Coast", "contains": null }, "geometry": { "type": "Point", "coordinates": [ -121.157174105660502, 36.411768616827203 ] } },
{ "type": "Feature", "properties": { "name": "Tracy Hills", "cfr": "9.204", "state": "CA", "county": "San Joaquin|Stanislaus", "within": null, "contains": null }, "geometry": { "type": "Point", "coordinates": [ -121.133543983035992, 37.746657675374252 ] } },
{ "type": "Feature", "properties": { "name": "Mt. Harlan", "cfr": "9.131", "state": "CA", "county": "San Benito", "within": "Central Coast", "contains": null }, "geometry": { "type": "Point", "coordinates": [ -121.073966810431997, 36.605714772972803 ] } },
{ "type": "Feature", "properties": { "name": "San Benito", "cfr": "9.110", "state": "CA", "county": "San Benito", "within": "Central Coast", "contains": "Cienega Valley|Lime Kiln Valley|Paicines" }, "geometry": { "type": "Point", "coordinates": [ -121.073966810431997, 36.605714772972803 ] } },
{ "type": "Feature", "properties": { "name": "Paicines", "cfr": "9.39", "state": "CA", "county": "San Benito", "within": "Central Coast|San Benito", "contains": null }, "geometry": { "type": "Point", "coordinates": [ -121.073966810431997, 36.605714772972803 ] } },
{ "type": "Feature", "properties": { "name": "Lime Kiln Valley", "cfr": "9.27", "state": "CA", "county": "San Benito", "within": "Cienega Valley|Central Coast|San Benito", "contains": null }, "geometry": { "type": "Point", "coordinates": [ -121.073966810431997, 36.605714772972803 ] } },
{ "type": "Feature", "properties": { "name": "Cienega Valley", "cfr": "9.38", "state": "CA", "county": "San Benito", "within": "Central Coast|San Benito", "contains": "Lime Kiln Valley" }, "geometry": { "type": "Point", "coordinates": [ -121.073966810431997, 36.605714772972803 ] } },
{ "type": "Feature", "properties": { "name": "Pacheco Pass", "cfr": "9.88", "state": "CA", "county": "San Benito", "within": "Central Coast|San Francisco Bay|Santa Clara Valley", "contains": null }, "geometry": { "type": "Point", "coordinates": [ -121.073966810431997, 36.605714772972803 ] } },
{ "type": "Feature", "properties": { "name": "Diablo Grande", "cfr": "9.156", "state": "CA", "county": "Stanislaus", "within": null, "contains": null }, "geometry": { "type": "Point", "coordinates": [ -120.997163634646, 37.559549459253603 ] } },
{ "type": "Feature", "properties": { "name": "Salado Creek", "cfr": "9.163", "state": "CA", "county": "Stanislaus", "within": null, "contains": null }, "geometry": { "type": "Point", "coordinates": [ -120.997163634646, 37.559549459253603 ] } },
{ "type": "Feature", "properties": { "name": "Snipes Mountain", "cfr": "9.213", "state": "WA", "county": "Yakima", "within": "Yakima Valley|Columbia Valley", "contains": null }, "geometry": { "type": "Point", "coordinates": [ -120.737782799089004, 46.456668932798699 ] } },
{ "type": "Feature", "properties": { "name": "Naches Heights", "cfr": "9.222", "state": "WA", "county": "Yakima", "within": "Columbia Valley", "contains": null }, "geometry": { "type": "Point", "coordinates": [ -120.737782799089004, 46.456668932798699 ] } },
{ "type": "Feature", "properties": { "name": "Rattlesnake Hills", "cfr": "9.193", "state": "WA", "county": "Yakima", "within": "Yakima Valley|Columbia Valley", "contains": null }, "geometry": { "type": "Point", "coordinates": [ -120.737782799089004, 46.456668932798699 ] } },
{ "type": "Feature", "properties": { "name": "Sierra Foothills", "cfr": "9.120", "state": "CA", "county": "Amador", "within": null, "contains": "California Shenandoah Valley|El Dorado|Fair Play|Fiddletown|North Yuba|Calaveras|El Dorado|Mariposa|Nevada|Placer|Tuolumne|Yuba" }, "geometry": { "type": "Point", "coordinates": [ -120.646332735515998, 38.446863219503904 ] } },
{ "type": "Feature", "properties": { "name": "Fiddletown", "cfr": "9.81", "state": "CA", "county": "Amador", "within": "Sierra Foothills", "contains": null }, "geometry": { "type": "Point", "coordinates": [ -120.646332735515998, 38.446863219503904 ] } },
{ "type": "Feature", "properties": { "name": "Lake Chelan", "cfr": "9.215", "state": "WA", "county": "Chelan", "within": "Columbia Valley", "contains": null }, "geometry": { "type": "Point", "coordinates": [ -120.618001604216005, 47.869345282599497 ] } },
{ "type": "Feature", "properties": { "name": "California Shenandoah Valley", "cfr": "9.37", "state": "CA", "county": "Amador|El Dorado", "within": "Sierra Foothills", "contains": null }, "geometry": { "type": "Point", "coordinates": [ -120.585803245282989, 38.612926943481057 ] } },
{ "type": "Feature", "properties": { "name": "El Dorado", "cfr": "9.61", "state": "CA", "county": "El Dorado", "within": "Sierra Foothills", "contains": "Fair Play" }, "geometry": { "type": "Point", "coordinates": [ -120.525273755049994, 38.778990667458203 ] } },
{ "type": "Feature", "properties": { "name": "Fair Play", "cfr": "9.168", "state": "CA", "county": "El Dorado", "within": "El Dorado|Sierra Foothills", "contains": null }, "geometry": { "type": "Point", "coordinates": [ -120.525273755049994, 38.778990667458203 ] } },
{ "type": "Feature", "properties": { "name": "San Miguel District", "cfr": "9.246", "state": "CA", "county": "San Luis Obispo", "within": "Central Coast|Paso Robles", "contains": null }, "geometry": { "type": "Point", "coordinates": [ -120.404967617362004, 35.387689411986301 ] } },
{ "type": "Feature", "properties": { "name": "El Pomar District", "cfr": "9.240", "state": "CA", "county": "San Luis Obispo", "within": "Central Coast|Paso Robles", "contains": null }, "geometry": { "type": "Point", "coordinates": [ -120.404967617362004, 35.387689411986301 ] } },
{ "type": "Feature", "properties": { "name": "Adelaida District", "cfr": "9.238", "state": "CA", "county": "San Luis Obispo", "within": "Central Coast|Paso Robles", "contains": null }, "geometry": { "type": "Point", "coordinates": [ -120.404967617362004, 35.387689411986301 ] } },
{ "type": "Feature", "properties": { "name": "Arroyo Grande Valley", "cfr": "9.129", "state": "CA", "county": "San Luis Obispo", "within": "Central Coast", "contains": null }, "geometry": { "type": "Point", "coordinates": [ -120.404967617362004, 35.387689411986301 ] } },
{ "type": "Feature", "properties": { "name": "Paso Robles Willow Creek District", "cfr": "9.244", "state": "CA", "county": "San Luis Obispo", "within": "Central Coast|Paso Robles", "contains": null }, "geometry": { "type": "Point", "coordinates": [ -120.404967617362004, 35.387689411986301 ] } },
{ "type": "Feature", "properties": { "name": "Paso Robles Highlands District", "cfr": "9.243", "state": "CA", "county": "San Luis Obispo", "within": "Central Coast|Paso Robles", "contains": null }, "geometry": { "type": "Point", "coordinates": [ -120.404967617362004, 35.387689411986301 ] } },
{ "type": "Feature", "properties": { "name": "Paso Robles Estrella District", "cfr": "9.241", "state": "CA", "county": "San Luis Obispo", "within": "Central Coast|Paso Robles", "contains": null }, "geometry": { "type": "Point", "coordinates": [ -120.404967617362004, 35.387689411986301 ] } },
{ "type": "Feature", "properties": { "name": "Paso Robles Geneseo District", "cfr": "9.242", "state": "CA", "county": "San Luis Obispo", "within": "Central Coast|Paso Robles", "contains": null }, "geometry": { "type": "Point", "coordinates": [ -120.404967617362004, 35.387689411986301 ] } },
{ "type": "Feature", "properties": { "name": "York Mountain", "cfr": "9.80", "state": "CA", "county": "San Luis Obispo", "within": "Central Coast", "contains": null }, "geometry": { "type": "Point", "coordinates": [ -120.404967617362004, 35.387689411986301 ] } },
{ "type": "Feature", "properties": { "name": "Santa Margarita Ranch", "cfr": "9.247", "state": "CA", "county": "San Luis Obispo", "within": "Central Coast|Paso Robles", "contains": null }, "geometry": { "type": "Point", "coordinates": [ -120.404967617362004, 35.387689411986301 ] } },
{ "type": "Feature", "properties": { "name": "Creston District", "cfr": "9.229", "state": "CA", "county": "San Luis Obispo", "within": "Central Coast|Paso Robles", "contains": null }, "geometry": { "type": "Point", "coordinates": [ -120.404967617362004, 35.387689411986301 ] } },
{ "type": "Feature", "properties": { "name": "San Juan Creek", "cfr": "9.245", "state": "CA", "county": "San Luis Obispo", "within": "Central Coast|Paso Robles", "contains": null }, "geometry": { "type": "Point", "coordinates": [ -120.404967617362004, 35.387689411986301 ] } },
{ "type": "Feature", "properties": { "name": "Paso Robles", "cfr": "9.84", "state": "CA", "county": "San Luis Obispo", "within": "Central Coast", "contains": "Adelaida District|Creston District|El Pomar District|Paso Robles Estrella District|Paso Robles Geneseo District|Paso Robles Highlands District|Paso Robles Willow Creek District|San Juan Creek|San Miguel District|Santa Margarita Ranch|Templeton Gap District" }, "geometry": { "type": "Point", "coordinates": [ -120.404967617362004, 35.387689411986301 ] } },
{ "type": "Feature", "properties": { "name": "Edna Valley", "cfr": "9.35", "state": "CA", "county": "San Luis Obispo", "within": "Central Coast", "contains": null }, "geometry": { "type": "Point", "coordinates": [ -120.404967617362004, 35.387689411986301 ] } },
{ "type": "Feature", "properties": { "name": "Templeton Gap District", "cfr": "9.248", "state": "CA", "county": "San Luis Obispo", "within": "Central Coast|Paso Robles", "contains": null }, "geometry": { "type": "Point", "coordinates": [ -120.404967617362004, 35.387689411986301 ] } },
{ "type": "Feature", "properties": { "name": "Horse Heaven Hills", "cfr": "9.188", "state": "WA", "county": "Benton|Klickitat|Yakima", "within": "Columbia Valley", "contains": null }, "geometry": { "type": "Point", "coordinates": [ -120.345909669697335, 46.190658533268298 ] } },
{ "type": "Feature", "properties": { "name": "Santa Maria Valley", "cfr": "9.28", "state": "CA", "county": "San Luis Obispo|Santa Barbara", "within": "Central Coast", "contains": null }, "geometry": { "type": "Point", "coordinates": [ -120.211568232264995, 35.030656497063902 ] } },
{ "type": "Feature", "properties": { "name": "Yakima Valley", "cfr": "9.69", "state": "WA", "county": "Benton|Yakima", "within": "Columbia Valley", "contains": "Rattlesnake Hills|Red Mountain|Snipes Mountain" }, "geometry": { "type": "Point", "coordinates": [ -120.124529227113001, 46.348718127199248 ] } },
{ "type": "Feature", "properties": { "name": "Sta. Rita Hills", "cfr": "9.162", "state": "CA", "county": "Santa Barbara", "within": "Central Coast|Santa Ynez Valley", "contains": null }, "geometry": { "type": "Point", "coordinates": [ -120.018168847167999, 34.673623582141502 ] } },
{ "type": "Feature", "properties": { "name": "Santa Ynez Valley", "cfr": "9.54", "state": "CA", "county": "Santa Barbara", "within": "Central Coast", "contains": "Ballard Canyon|Happy Canyon of Santa Barbara|Los Olivos District|Sta. Rita Hills" }, "geometry": { "type": "Point", "coordinates": [ -120.018168847167999, 34.673623582141502 ] } },
{ "type": "Feature", "properties": { "name": "Ballard Canyon", "cfr": "9.230", "state": "CA", "county": "Santa Barbara", "within": "Central Coast|Santa Ynez Valley", "contains": null }, "geometry": { "type": "Point", "coordinates": [ -120.018168847167999, 34.673623582141502 ] } },
{ "type": "Feature", "properties": { "name": "Happy Canyon of Santa Barbara", "cfr": "9.217", "state": "CA", "county": "Santa Barbara", "within": "Central Coast|Santa Ynez Valley", "contains": null }, "geometry": { "type": "Point", "coordinates": [ -120.018168847167999, 34.673623582141502 ] } },
{ "type": "Feature", "properties": { "name": "Los Olivos District", "cfr": "9.253", "state": "CA", "county": "Santa Barbara", "within": "Central Coast|Santa Ynez Valley", "contains": null }, "geometry": { "type": "Point", "coordinates": [ -120.018168847167999, 34.673623582141502 ] } },
{ "type": "Feature", "properties": { "name": "Ancient Lakes of Columbia Valley", "cfr": "9.227", "state": "WA", "county": "Douglas|Grant|Kittitas", "within": "Columbia Valley", "contains": null }, "geometry": { "type": "Point", "coordinates": [ -119.940695457371319, 47.355512998594968 ] } },
{ "type": "Feature", "properties": { "name": "Madera", "cfr": "9.92", "state": "CA", "county": "Fresno|Madera", "within": null, "contains": null }, "geometry": { "type": "Point", "coordinates": [ -119.707484836999001, 36.988004120267846 ] } },
{ "type": "Feature", "properties": { "name": "Squaw Valley-Miramonte", "cfr": "9.251", "state": "CA", "county": "Fresno", "within": null, "contains": null }, "geometry": { "type": "Point", "coordinates": [ -119.651464080676007, 36.758257413969098 ] } },
{ "type": "Feature", "properties": { "name": "Red Mountain", "cfr": "9.167", "state": "WA", "county": "Benton", "within": "Yakima Valley|Columbia Valley", "contains": null }, "geometry": { "type": "Point", "coordinates": [ -119.511275655136998, 46.240767321599797 ] } },
{ "type": "Feature", "properties": { "name": "Wahluke Slope", "cfr": "9.192", "state": "WA", "county": "Grant", "within": "Columbia Valley", "contains": null }, "geometry": { "type": "Point", "coordinates": [ -119.451098995886994, 47.206592982002199 ] } },
{ "type": "Feature", "properties": { "name": "The Rocks District of Milton-Freewater", "cfr": "9.249", "state": "OR", "county": "Umatilla", "within": "Columbia Valley|Walla Walla Valley", "contains": null }, "geometry": { "type": "Point", "coordinates": [ -118.739044464938999, 45.592302703376603 ] } },
{ "type": "Feature", "properties": { "name": "Malibu Coast", "cfr": "9.235", "state": "CA", "county": "Los Angeles|Ventura", "within": null, "contains": "Malibu-Newton Canyon|Saddle Rock-Malibu" }, "geometry": { "type": "Point", "coordinates": [ -118.656265232151497, 34.389770402551399 ] } },
{ "type": "Feature", "properties": { "name": "Antelope Valley of the California High Desert", "cfr": "9.219", "state": "CA", "county": "Kern|Los Angeles", "within": null, "contains": null }, "geometry": { "type": "Point", "coordinates": [ -118.479500423339005, 34.832796433509451 ] } },
{ "type": "Feature", "properties": { "name": "Malibu-Newton Canyon", "cfr": "9.152", "state": "CA", "county": "Los Angeles", "within": "Malibu Coast", "contains": null }, "geometry": { "type": "Point", "coordinates": [ -118.226758763193004, 34.323174090540299 ] } },
{ "type": "Feature", "properties": { "name": "Sierra Pelona Valley", "cfr": "9.218", "state": "CA", "county": "Los Angeles", "within": null, "contains": null }, "geometry": { "type": "Point", "coordinates": [ -118.226758763193004, 34.323174090540299 ] } },
{ "type": "Feature", "properties": { "name": "Saddle Rock- Malibu", "cfr": "9.203", "state": "CA", "county": "Los Angeles", "within": "Malibu Coast", "contains": null }, "geometry": { "type": "Point", "coordinates": [ -118.226758763193004, 34.323174090540299 ] } },
{ "type": "Feature", "properties": { "name": "Leona Valley", "cfr": "9.212", "state": "CA", "county": "Los Angeles", "within": null, "contains": null }, "geometry": { "type": "Point", "coordinates": [ -118.226758763193004, 34.323174090540299 ] } },
{ "type": "Feature", "properties": { "name": "South Coast", "cfr": "9.104", "state": "CA", "county": "Los Angeles|Orange|Riverside|San Bernadino|San Diego", "within": null, "contains": "Ramona Valley|San Pasquale Valley|Temecula Valley" }, "geometry": { "type": "Point", "coordinates": [ -117.178260931450751, 33.701576773582474 ] } },
{ "type": "Feature", "properties": { "name": "San Pasqual Valley", "cfr": "9.25", "state": "CA", "county": "San Diego", "within": "South Coast", "contains": null }, "geometry": { "type": "Point", "coordinates": [ -116.732444440110001, 33.0345700383021 ] } },
{ "type": "Feature", "properties": { "name": "Ramona Valley", "cfr": "9.191", "state": "CA", "county": "San Diego", "within": "South Coast", "contains": null }, "geometry": { "type": "Point", "coordinates": [ -116.732444440110001, 33.0345700383021 ] } },
{ "type": "Feature", "properties": { "name": "Eagle Foothills", "cfr": "9.252", "state": "ID", "county": "Ada|Gem", "within": "Snake River Valley", "contains": null }, "geometry": { "type": "Point", "coordinates": [ -116.319090034917991, 43.756191191085051 ] } },
{ "type": "Feature", "properties": { "name": "Cucamonga Valley", "cfr": "9.150", "state": "CA", "county": "Riverside|San Bernadino", "within": null, "contains": null }, "geometry": { "type": "Point", "coordinates": [ -115.992799800021999, 33.7455206244462 ] } },
{ "type": "Feature", "properties": { "name": "Temecula Valley", "cfr": "9.50", "state": "CA", "county": "Riverside", "within": "South Coast", "contains": null }, "geometry": { "type": "Point", "coordinates": [ -115.992799800021999, 33.7455206244462 ] } },
{ "type": "Feature", "properties": { "name": "Sonoita", "cfr": "9.97", "state": "AZ", "county": "Santa Cruz", "within": null, "contains": null }, "geometry": { "type": "Point", "coordinates": [ -110.844302245747002, 31.5243747061363 ] } },
{ "type": "Feature", "properties": { "name": "Willcox", "cfr": "9.259", "state": "AZ", "county": "Cochise|Graham", "within": null, "contains": null }, "geometry": { "type": "Point", "coordinates": [ -109.818164540710995, 32.40571748255455 ] } },
{ "type": "Feature", "properties": { "name": "Grand Valley", "cfr": "9.137", "state": "CO", "county": "Mesa", "within": null, "contains": null }, "geometry": { "type": "Point", "coordinates": [ -108.465665238208004, 39.017991179816597 ] } },
{ "type": "Feature", "properties": { "name": "Mimbres Valley", "cfr": "9.103", "state": "NM", "county": "Grant|Luna", "within": null, "contains": null }, "geometry": { "type": "Point", "coordinates": [ -108.063282313028495, 32.461771311758049 ] } },
{ "type": "Feature", "properties": { "name": "West Elks", "cfr": "9.172", "state": "CO", "county": "Delta", "within": null, "contains": null }, "geometry": { "type": "Point", "coordinates": [ -107.861717489509999, 38.8596031494722 ] } },
{ "type": "Feature", "properties": { "name": "Middle Rio Grande Valley", "cfr": "9.119", "state": "NM", "county": "Bernalillo|Sandoval|Socorro|Valencia", "within": null, "contains": null }, "geometry": { "type": "Point", "coordinates": [ -106.815287971725752, 34.866586089202727 ] } },
{ "type": "Feature", "properties": { "name": "Texas Davis Mountains", "cfr": "9.155", "state": "TX", "county": "Jeff Davis", "within": null, "contains": null }, "geometry": { "type": "Point", "coordinates": [ -104.144511538718007, 30.716171976236801 ] } },
{ "type": "Feature", "properties": { "name": "Escondido Valley", "cfr": "9.141", "state": "TX", "county": "Pecos", "within": null, "contains": null }, "geometry": { "type": "Point", "coordinates": [ -102.726060705657005, 30.782485470560299 ] } },
{ "type": "Feature", "properties": { "name": "Texas High Plains", "cfr": "9.144", "state": "TX", "county": "Armstrong|Bailey|Borden|Briscoe|Castro|Cochran|Crosby|Dawson|Deaf Smith|Dickens|Floyd|Gaines|Garza|Hale|Hockley|Lamb|Lubbock|Lynn|Motley|Parmer|Randall|Swisher|Terry|Yoakum", "within": null, "contains": null }, "geometry": { "type": "Point", "coordinates": [ -101.92965738139948, 33.847794826578792 ] } },
{ "type": "Feature", "properties": { "name": "Fredericksburg in the Texas Hill Country", "cfr": "9.125", "state": "TX", "county": "Gillespie", "within": "Texas Hill Country", "contains": null }, "geometry": { "type": "Point", "coordinates": [ -98.945082680467095, 30.3192731831444 ] } },
{ "type": "Feature", "properties": { "name": "Bell Mountain", "cfr": "9.55", "state": "TX", "county": "Gillespie", "within": "Texas Hill Country", "contains": null }, "geometry": { "type": "Point", "coordinates": [ -98.945082680467095, 30.3192731831444 ] } },
{ "type": "Feature", "properties": { "name": "Texas Hill Country", "cfr": "9.136", "state": "TX", "county": "Bandera|Bexar|Blanco|Burnet|Comal|Edwards|Gillespie|Guadalupe|Hays|Kendall|Kerr|Kimble|Lampasas|Llano|Mason|McCulloch|Medina|Menard|Real|San Saba|Travis|Uvalde|Williamson", "within": null, "contains": "Bell Mountain|Fredericksburg in the Texas Hill Country" }, "geometry": { "type": "Point", "coordinates": [ -98.865379382058649, 30.255705188646747 ] } },
{ "type": "Feature", "properties": { "name": "Texoma", "cfr": "9.185", "state": "TX", "county": "Cooke|Fannin|Grayson|Montague", "within": null, "contains": null }, "geometry": { "type": "Point", "coordinates": [ -96.929885053667988, 33.634046950765175 ] } },
{ "type": "Feature", "properties": { "name": "Alexandria Lakes", "cfr": "9.177", "state": "MN", "county": "Douglas", "within": null, "contains": null }, "geometry": { "type": "Point", "coordinates": [ -95.453456324921802, 45.934082352815302 ] } },
{ "type": "Feature", "properties": { "name": "Altus", "cfr": "9.77", "state": "AR", "county": "Franklin", "within": "Arkansas Mountain|Ozark Mountain", "contains": null }, "geometry": { "type": "Point", "coordinates": [ -93.8900165363182, 35.512651927722999 ] } },
{ "type": "Feature", "properties": { "name": "Arkansas Mountain", "cfr": "9.112", "state": "AR", "county": "Conway|Crawford|Franklin|Johnson|Logan|Madison|Newton|Pope|Sebastian|Van Buren|Yell", "within": "Ozark Mountain", "contains": "Altus" }, "geometry": { "type": "Point", "coordinates": [ -93.471825076355529, 35.482779448073401 ] } },
{ "type": "Feature", "properties": { "name": "Ozark Highlands", "cfr": "9.115", "state": "MO", "county": "Crawford|Dent|Franklin|Gasconade|Maries|Osage|Phelps|Pulaski|Reynolds|Shannon|Texas", "within": "Ozark Mountain", "contains": null }, "geometry": { "type": "Point", "coordinates": [ -91.591945014748021, 37.875065062359198 ] } },
{ "type": "Feature", "properties": { "name": "Hermann", "cfr": "9.71", "state": "MO", "county": "Gasconade|Franklin", "within": "Ozark Mountain", "contains": null }, "geometry": { "type": "Point", "coordinates": [ -91.291505547077946, 38.428241766292146 ] } },
{ "type": "Feature", "properties": { "name": "Augusta", "cfr": "9.22", "state": "MO", "county": "Saint Charles", "within": "Ozark Mountain", "contains": null }, "geometry": { "type": "Point", "coordinates": [ -90.673315991734796, 38.784657954186201 ] } },
{ "type": "Feature", "properties": { "name": "Lake Wisconsin", "cfr": "9.146", "state": "WI", "county": "Columbia|Dane", "within": "Upper Mississippi|River Valley", "contains": null }, "geometry": { "type": "Point", "coordinates": [ -89.375959161101861, 43.267810968625902 ] } },
{ "type": "Feature", "properties": { "name": "Shawnee Hills", "cfr": "9.206", "state": "IL", "county": "Alexander|Gallatin|Hardin|Jackson|Johnson|Pope|Pulaski|Randolph|Saline|Union|Williamson", "within": null, "contains": null }, "geometry": { "type": "Point", "coordinates": [ -88.939035131993379, 37.579323293086802 ] } },
{ "type": "Feature", "properties": { "name": "Wisconsin Ledge", "cfr": "9.224", "state": "WI", "county": "Brown|Calumet|Dodge|Door|Fond du Lac|Kewaunee|Manitowoc|Outagamie|Ozaukee|Sheboygan|Washington", "within": null, "contains": null }, "geometry": { "type": "Point", "coordinates": [ -88.068727881375338, 44.016173957107128 ] } },
{ "type": "Feature", "properties": { "name": "Indiana Uplands", "cfr": "9.228", "state": "IN", "county": "Bartholomew|Brown|Crawford|Daviess|Dubois|Floyd|Greene|Harrison|Jackson|Lawrence|Martin|Monroe|Morgan|Orange|Owens|Perry|Scott|Spencer|Washington", "within": null, "contains": null }, "geometry": { "type": "Point", "coordinates": [ -86.433007911381139, 38.685364136594487 ] } },
{ "type": "Feature", "properties": { "name": "Lake Michigan Shore", "cfr": "9.79", "state": "MI", "county": "Allegan|Berrien|Cass|Kalamazoo|Van Buren", "within": null, "contains": "Fennville" }, "geometry": { "type": "Point", "coordinates": [ -85.9693006037987, 42.191568513348457 ] } },
{ "type": "Feature", "properties": { "name": "Fennville", "cfr": "9.33", "state": "MI", "county": "Allegan", "within": "Lake Michigan Shore", "contains": null }, "geometry": { "type": "Point", "coordinates": [ -85.888988110960199, 42.590439764595402 ] } },
{ "type": "Feature", "properties": { "name": "Leelanau Peninsula", "cfr": "9.40", "state": "MI", "county": "Leelanau", "within": null, "contains": null }, "geometry": { "type": "Point", "coordinates": [ -85.813524130299797, 44.938444622647403 ] } },
{ "type": "Feature", "properties": { "name": "Old Mission Peninsula", "cfr": "9.114", "state": "MI", "county": "Grand Traverse", "within": null, "contains": null }, "geometry": { "type": "Point", "coordinates": [ -85.560798229874905, 44.669060528351601 ] } },
{ "type": "Feature", "properties": { "name": "Tip of the Mitt", "cfr": "9.257", "state": "MI", "county": "Alpena|Antrim|Charlevoix|Cheboygan|Emmet|Presque Isle", "within": null, "contains": null }, "geometry": { "type": "Point", "coordinates": [ -84.535381448236691, 45.273749938908132 ] } },
{ "type": "Feature", "properties": { "name": "Loramie Creek", "cfr": "9.62", "state": "OH", "county": "Shelby", "within": null, "contains": null }, "geometry": { "type": "Point", "coordinates": [ -84.204664376671801, 40.3313827162781 ] } },
{ "type": "Feature", "properties": { "name": "Isle St. George", "cfr": "9.51", "state": "OH", "county": "Ottawa", "within": "Lake Erie", "contains": null }, "geometry": { "type": "Point", "coordinates": [ -83.1419128738589, 41.538983198015899 ] } },
{ "type": "Feature", "properties": { "name": "Kanawha River Valley", "cfr": "9.111", "state": "WV", "county": "Cabell|Jackson|Kanawha|Mason|Putnam", "within": "Ohio River Valley", "contains": null }, "geometry": { "type": "Point", "coordinates": [ -81.875359208401747, 38.574185985738232 ] } },
{ "type": "Feature", "properties": { "name": "Grand River Valley", "cfr": "9.87", "state": "OH", "county": "Ashtabula|Geauga|Lake", "within": "Lake Erie", "contains": null }, "geometry": { "type": "Point", "coordinates": [ -81.054776587191057, 41.6344359524034 ] } },
{ "type": "Feature", "properties": { "name": "Swan Creek", "cfr": "9.211", "state": "NC", "county": "Iredell|Wilkes|Yadkin", "within": "Yadkin Valley", "contains": null }, "geometry": { "type": "Point", "coordinates": [ -80.901613180556566, 36.059700628393763 ] } },
{ "type": "Feature", "properties": { "name": "Yadkin Valley", "cfr": "9.174", "state": "NC", "county": "Davidson|Davie|Forsythe|Stokes|Surrey|Wilkes|Yadkin", "within": null, "contains": "Swan Creek" }, "geometry": { "type": "Point", "coordinates": [ -80.566572885181316, 36.098919603618377 ] } },
{ "type": "Feature", "properties": { "name": "Rocky Knob", "cfr": "9.43", "state": "VA", "county": "Floyd|Patrick", "within": null, "contains": null }, "geometry": { "type": "Point", "coordinates": [ -80.323181012625952, 36.805244178720798 ] } },
{ "type": "Feature", "properties": { "name": "North Fork of Roanoke", "cfr": "9.65", "state": "VA", "county": "Montgomery|Roanoke", "within": null, "contains": null }, "geometry": { "type": "Point", "coordinates": [ -80.139328330089768, 37.241732739348997 ] } },
{ "type": "Feature", "properties": { "name": "Haw River Valley", "cfr": "9.214", "state": "NC", "county": "Alamance|Caswell|Chatham|Guilford|Orange|Rockingham", "within": null, "contains": null }, "geometry": { "type": "Point", "coordinates": [ -79.446687447523871, 36.112551080941365 ] } },
{ "type": "Feature", "properties": { "name": "Niagara Escarpment", "cfr": "9.186", "state": "NY", "county": "Niagara", "within": null, "contains": null }, "geometry": { "type": "Point", "coordinates": [ -78.742251200710299, 43.201908672313401 ] } },
{ "type": "Feature", "properties": { "name": "Monticello", "cfr": "9.48", "state": "VA", "county": "Albemarle|Greene|Nelson|Orange", "within": null, "contains": null }, "geometry": { "type": "Point", "coordinates": [ -78.481153065802474, 38.090118868323728 ] } },
{ "type": "Feature", "properties": { "name": "Middleburg Virginia", "cfr": "9.225", "state": "VA", "county": "Fauquier|Loudoun", "within": null, "contains": null }, "geometry": { "type": "Point", "coordinates": [ -77.722343891772951, 38.915878040292796 ] } },
{ "type": "Feature", "properties": { "name": "Catoctin", "cfr": "9.67", "state": "MD", "county": "Frederick|Washington", "within": null, "contains": null }, "geometry": { "type": "Point", "coordinates": [ -77.605541483472791, 39.5390513235822 ] } },
{ "type": "Feature", "properties": { "name": "Linganore", "cfr": "9.63", "state": "MD", "county": "Carroll|Frederick", "within": null, "contains": null }, "geometry": { "type": "Point", "coordinates": [ -77.209823369177712, 39.517821080303747 ] } },
{ "type": "Feature", "properties": { "name": "Seneca Lake", "cfr": "9.128", "state": "NY", "county": "Ontario|Schuyler|Seneca|Yates", "within": "Finger Lakes", "contains": null }, "geometry": { "type": "Point", "coordinates": [ -77.025339321137594, 42.665128324217847 ] } },
{ "type": "Feature", "properties": { "name": "Finger Lakes", "cfr": "9.34", "state": "NY", "county": "Cayuga|Courtland|Livingston|Monroe|Onondaga|Ontario|Schuyler|Seneca|Steuben|Tompkins|Wayne|Yates", "within": null, "contains": "Cayuga Lake|Seneca Lake" }, "geometry": { "type": "Point", "coordinates": [ -77.019097712466149, 42.757529778496114 ] } },
{ "type": "Feature", "properties": { "name": "Northern Neck George Washington Birthplace", "cfr": "9.109", "state": "VA", "county": "King George|Lancaster|Northumberland|Richmond|Westmoreland", "within": null, "contains": null }, "geometry": { "type": "Point", "coordinates": [ -76.84315744398414, 37.915306081948714 ] } },
{ "type": "Feature", "properties": { "name": "Cayuga Lake", "cfr": "9.127", "state": "NY", "county": "Cayuga|Seneca|Tompkins", "within": "Finger Lakes", "contains": null }, "geometry": { "type": "Point", "coordinates": [ -76.61662245739943, 42.716049861195131 ] } },
{ "type": "Feature", "properties": { "name": "Lancaster Valley", "cfr": "9.41", "state": "PA", "county": "Chester|Lancaster", "within": null, "contains": null }, "geometry": { "type": "Point", "coordinates": [ -75.998141853595897, 40.008543797558602 ] } },
{ "type": "Feature", "properties": { "name": "Virginia’s Eastern Shore", "cfr": "9.135", "state": "VA", "county": "Accomack|Northampton", "within": null, "contains": null }, "geometry": { "type": "Point", "coordinates": [ -75.7738512885456, 37.561376860446849 ] } },
{ "type": "Feature", "properties": { "name": "Lehigh Valley", "cfr": "9.210", "state": "PA", "county": "Berks|Carbon|Lehigh|Monroe|Northampton|Schuylkill", "within": null, "contains": null }, "geometry": { "type": "Point", "coordinates": [ -75.681385517653993, 40.744344324162114 ] } },
{ "type": "Feature", "properties": { "name": "Warren Hills", "cfr": "9.121", "state": "NJ", "county": "Warren", "within": null, "contains": null }, "geometry": { "type": "Point", "coordinates": [ -74.997015732481302, 40.857956377764403 ] } },
{ "type": "Feature", "properties": { "name": "Outer Coastal Plain", "cfr": "9.207", "state": "NJ", "county": "Atlantic|Burlington|Camden|Cape May|Cumberland|Gloucester|Monmouth|Ocean|Salem", "within": null, "contains": null }, "geometry": { "type": "Point", "coordinates": [ -74.803281081317849, 39.683850025950711 ] } },
{ "type": "Feature", "properties": { "name": "Hudson River Region", "cfr": "9.47", "state": "NY", "county": "Columbia|Duchess|Orange|Putnam|Rockland|Sullivan|Ulster|Westchester", "within": null, "contains": null }, "geometry": { "type": "Point", "coordinates": [ -74.070874329575147, 41.570807826201346 ] } },
{ "type": "Feature", "properties": { "name": "Champlain Valley of New York", "cfr": "9.258", "state": "NY", "county": "Clinton|Essex", "within": null, "contains": null }, "geometry": { "type": "Point", "coordinates": [ -73.727464337327206, 44.43190537932945 ] } },
{ "type": "Feature", "properties": { "name": "Long Island", "cfr": "9.170", "state": "NY", "county": "Nassau|Suffolk", "within": null, "contains": "North Fork of Long Island|The Hamptons" }, "geometry": { "type": "Point", "coordinates": [ -73.219454912462453, 40.812390985948554 ] } },
{ "type": "Feature", "properties": { "name": "Western Connecticut Highlands", "cfr": "9.122", "state": "CT", "county": "Fairfield|Hartford|Litchfield|New Haven", "within": null, "contains": null }, "geometry": { "type": "Point", "coordinates": [ -73.075179251164357, 41.571007411907253 ] } },
{ "type": "Feature", "properties": { "name": "North Fork of Long Island", "cfr": "9.113", "state": "NY", "county": "Suffolk", "within": "Long Island", "contains": null }, "geometry": { "type": "Point", "coordinates": [ -72.850136884484598, 40.877697765715297 ] } },
{ "type": "Feature", "properties": { "name": "The Hamptons Long Island", "cfr": "9.101", "state": "NY", "county": "Suffolk", "within": "Long Island", "contains": null }, "geometry": { "type": "Point", "coordinates": [ -72.850136884484598, 40.877697765715297 ] } },
{ "type": "Feature", "properties": { "name": "Martha’s Vineyard", "cfr": "9.73", "state": "MA", "county": "Dukes", "within": "Southeastern New England", "contains": null }, "geometry": { "type": "Point", "coordinates": [ -70.657785656970901, 41.3936329941696 ] } },
{ "type": "Feature", "properties": { "name": "Ozark Mountain", "cfr": "9.108", "state": "AR|MO|OK", "county": null, "within": null, "contains": "Altus (AR)|Arkansas Mountain (AR)|Augusta (MO)|Hermann (MO)|Ozark Highlands (MO)" }, "geometry": { "type": "Point", "coordinates": [ -94.056241154927378, 36.28883855221391 ] } },
{ "type": "Feature", "properties": { "name": "Appalachian High Country", "cfr": "9.260", "state": "NC|TN|VI", "county": null, "within": null, "contains": null }, "geometry": { "type": "Point", "coordinates": [ -76.810008673180462, 29.883919105235957 ] } },
{ "type": "Feature", "properties": { "name": "Upper Mississippi River Valley", "cfr": "9.216", "state": "IL|IA|MN|WI", "county": null, "within": null, "contains": "Lake Wisconsin (WI)" }, "geometry": { "type": "Point", "coordinates": [ -91.697581018665289, 42.967349938585137 ] } },
{ "type": "Feature", "properties": { "name": "Snake River Valley", "cfr": "9.208", "state": "ID|OR", "county": null, "within": null, "contains": "Eagle Foothills (ID)" }, "geometry": { "type": "Point", "coordinates": [ -117.968123537474582, 44.378049477329881 ] } },
{ "type": "Feature", "properties": { "name": "Central Delaware Valley", "cfr": "9.49", "state": "NJ|PA", "county": null, "within": null, "contains": null }, "geometry": { "type": "Point", "coordinates": [ -76.139086877236139, 40.563658534103993 ] } },
{ "type": "Feature", "properties": { "name": "Southeastern New England", "cfr": "9.72", "state": "CT|RI|MA", "county": null, "within": null, "contains": "Martha’s Vineyard (MA)" }, "geometry": { "type": "Point", "coordinates": [ -71.864331138115361, 41.795273447362497 ] } },
{ "type": "Feature", "properties": { "name": "Loess Hills District", "cfr": "9.255", "state": "IA|MO", "county": null, "within": null, "contains": null }, "geometry": { "type": "Point", "coordinates": [ -92.974465032407366, 40.240900762338647 ] } },
{ "type": "Feature", "properties": { "name": "Mesilla Valley", "cfr": "9.100", "state": "NM|TX", "county": null, "within": null, "contains": null }, "geometry": { "type": "Point", "coordinates": [ -102.26948304533002, 33.105736341437819 ] } },
{ "type": "Feature", "properties": { "name": "Walla Walla Valley", "cfr": "9.91", "state": "OR|WA", "county": null, "within": "Columbia Valley", "contains": "The Rocks District of Milton–Freewater (OR)" }, "geometry": { "type": "Point", "coordinates": [ -121.125187307862447, 45.874877615586769 ] } },
{ "type": "Feature", "properties": { "name": "Lewis–Clark Valley", "cfr": "9.256", "state": "ID|WA", "county": null, "within": null, "contains": null }, "geometry": { "type": "Point", "coordinates": [ -117.616424938010454, 45.761002894574716 ] } },
{ "type": "Feature", "properties": { "name": "Shenandoah Valley", "cfr": "9.60", "state": "VI|WV", "county": null, "within": null, "contains": null }, "geometry": { "type": "Point", "coordinates": [ -72.714773338867985, 28.476589441429486 ] } },
{ "type": "Feature", "properties": { "name": "Mississippi Delta", "cfr": "9.96", "state": "MS|LA|TN", "county": null, "within": null, "contains": null }, "geometry": { "type": "Point", "coordinates": [ -89.194168470884847, 33.258485944606541 ] } },
{ "type": "Feature", "properties": { "name": "Cumberland Valley", "cfr": "9.105", "state": "MD|PA", "county": null, "within": null, "contains": null }, "geometry": { "type": "Point", "coordinates": [ -77.163432998408766, 39.92975275743089 ] } },
{ "type": "Feature", "properties": { "name": "Lake Erie", "cfr": "9.83", "state": "NY|OH|PA", "county": null, "within": null, "contains": "Grand River Valley (OH)|Isle St. George (OH)" }, "geometry": { "type": "Point", "coordinates": [ -78.662430427228614, 41.241813672938726 ] } },
{ "type": "Feature", "properties": { "name": "Upper Hiwassee Highlands", "cfr": "9.234", "state": "GA|NC", "county": null, "within": null, "contains": null }, "geometry": { "type": "Point", "coordinates": [ -81.543725725137818, 34.218146509186511 ] } },
{ "type": "Feature", "properties": { "name": "Columbia Gorge", "cfr": "9.178", "state": "OR|WA", "county": null, "within": null, "contains": null }, "geometry": { "type": "Point", "coordinates": [ -121.125187307862447, 45.874877615586769 ] } },
{ "type": "Feature", "properties": { "name": "Columbia Valley", "cfr": "9.74", "state": "OR|WA", "county": null, "within": null, "contains": "Ancient Lakes of Columbia Valley (WA)|Horse Heaven Hills (WA)|Naches Heights (WA)|Rattlesnake Hills (WA)|Red Mountain (WA)|The Rocks District of Milton–Freewater (OR)|Snipes Mountain (WA)|Walla Walla Valley (WA,OR)|Yakima Valley (WA)" }, "geometry": { "type": "Point", "coordinates": [ -121.125187307862447, 45.874877615586769 ] } },
{ "type": "Feature", "properties": { "name": "Ohio River Valley", "cfr": "9.78", "state": "IN|KY|OH|WV", "county": null, "within": null, "contains": "Kanawha River Valley (WV)" }, "geometry": { "type": "Point", "coordinates": [ -83.717884445239918, 39.155332441196073 ] } },
{ "type": "Feature", "properties": { "name": "Los Carneros", "cfr": "9.32", "state": "CA", "county": "Napa|Sonoma", "within": "Napa Valley|North Coast|Sonoma Coast|Sonoma Valley", "contains": null }, "geometry": { "type": "Polygon", "coordinates": [ [ [ -122.379079957680872, 38.250692374556003 ], [ -122.380145282399866, 38.252105669660587 ], [ -122.381579991066644, 38.253154934207934 ], [ -122.382265225056756, 38.253904408884608 ], [ -122.384706371146493, 38.254696710685664 ], [ -122.386119666251076, 38.257137856775415 ], [ -122.361381648530241, 38.273829728503088 ], [ -122.359443721151976, 38.273797608159811 ], [ -122.360000473768935, 38.274322240433484 ], [ -122.360214609390837, 38.274654150647443 ], [ -122.360450158574935, 38.274686270990728 ], [ -122.360535812823699, 38.275157369358922 ], [ -122.361274580719282, 38.275285850732068 ], [ -122.361627904495435, 38.275746242319173 ], [ -122.362484446983061, 38.275928257597791 ], [ -122.362677169042783, 38.276056738970937 ], [ -122.363426643719464, 38.276281581373937 ], [ -122.363854914963269, 38.276763386523236 ], [ -122.3640155166797, 38.276774093304326 ], [ -122.364433081142423, 38.277127417080479 ], [ -122.364775698137478, 38.277106003518284 ], [ -122.365021954102673, 38.277277312015812 ], [ -122.365268210067867, 38.277373673045673 ], [ -122.365546586376354, 38.277769823946201 ], [ -122.36591061693359, 38.278037493473583 ], [ -122.366392422082882, 38.278187388408924 ], [ -122.366445955988368, 38.278583539309452 ], [ -122.366670798391368, 38.2787013139015 ], [ -122.367163310321757, 38.278690607120403 ], [ -122.367348002295643, 38.278733434244785 ], [ -122.367433656544407, 38.279150998707507 ], [ -122.367968995599185, 38.279215239394077 ], [ -122.369403704265963, 38.279300893642841 ], [ -122.369810561947588, 38.279804112354327 ], [ -122.370110351818255, 38.280093195443904 ], [ -122.37051720949988, 38.27979340557323 ], [ -122.370956187524797, 38.279440081797084 ], [ -122.371502233360658, 38.279739871667751 ], [ -122.372016158853242, 38.279921886946376 ], [ -122.372497964002534, 38.279804112354327 ], [ -122.372455136878159, 38.279183119050792 ], [ -122.37218746735077, 38.278669193558216 ], [ -122.372583618251298, 38.278615659652736 ], [ -122.373054716619492, 38.278594246090549 ], [ -122.373300972584687, 38.27891544952341 ], [ -122.373482987863312, 38.279247359737361 ], [ -122.373836311639465, 38.279268773299556 ], [ -122.374232462539993, 38.279846939478709 ], [ -122.373686416704118, 38.279932593727473 ], [ -122.373611469236451, 38.280703481966341 ], [ -122.373707830266312, 38.280842670120578 ], [ -122.373718537047409, 38.280917617588244 ], [ -122.374023680308625, 38.281174580334536 ], [ -122.373830958248917, 38.281527904110682 ], [ -122.374280643054917, 38.281849107543543 ], [ -122.373905905716583, 38.282106070289835 ], [ -122.373938026059861, 38.282266672006266 ], [ -122.374548312582306, 38.282630702563509 ], [ -122.374537605801208, 38.283069680588419 ], [ -122.374826688890778, 38.283423004364572 ], [ -122.375287080477889, 38.283551485737711 ], [ -122.375137185542556, 38.283936929857148 ], [ -122.375784945798827, 38.284729231658204 ], [ -122.376031201764022, 38.284847006250253 ], [ -122.37658795438098, 38.284804179125871 ], [ -122.376641488286452, 38.284943367280114 ], [ -122.376962691719314, 38.284964780842309 ], [ -122.376994812062605, 38.285114675777642 ], [ -122.377069759530272, 38.285168209683121 ], [ -122.376855623908355, 38.285553653802552 ], [ -122.377337429057661, 38.28632454204142 ], [ -122.377776407082564, 38.286420903071281 ], [ -122.377658632490522, 38.28676352006633 ], [ -122.378076196953231, 38.286913415001671 ], [ -122.37811902407762, 38.287512994743011 ], [ -122.378493761415953, 38.287737837146011 ], [ -122.378547295321439, 38.287866318519157 ], [ -122.379050514032912, 38.287877025300254 ], [ -122.379468078495634, 38.28801621345449 ], [ -122.379136168281676, 38.288562259290359 ], [ -122.379425251371259, 38.288722861006789 ], [ -122.38023896673451, 38.288690740663505 ], [ -122.380313914202176, 38.289065478001845 ], [ -122.38062441085394, 38.289151132250609 ], [ -122.380736832055447, 38.289429508559081 ], [ -122.381036621926114, 38.289643644180991 ], [ -122.380897433771878, 38.290114742549193 ], [ -122.381475599951031, 38.290339584952193 ], [ -122.381657615229642, 38.290778562977103 ], [ -122.382321435657559, 38.290917751131346 ], [ -122.382599811966045, 38.29122824778311 ], [ -122.382878188274518, 38.291399556280638 ], [ -122.38248203737399, 38.291977722459791 ], [ -122.383563422264629, 38.293005573444944 ], [ -122.383263632393962, 38.293391017564382 ], [ -122.383788264667629, 38.293808582027104 ], [ -122.383595542607921, 38.294194026146535 ], [ -122.38394886638406, 38.29437604142516 ], [ -122.383959573165157, 38.294740071982403 ], [ -122.384280776598018, 38.295146929664028 ], [ -122.38433431050349, 38.295532373783459 ], [ -122.384559152906505, 38.295917817902897 ], [ -122.384441378314449, 38.296260434897945 ], [ -122.385040958055797, 38.296742240047244 ], [ -122.384698341060741, 38.297020616355717 ], [ -122.385576297110561, 38.29797351987321 ], [ -122.385222973334422, 38.298123414808543 ], [ -122.385340747926463, 38.298487445365787 ], [ -122.38496601058813, 38.298969250515086 ], [ -122.385372868269755, 38.299247626823565 ], [ -122.385490642861797, 38.299772259097239 ], [ -122.385458522518519, 38.301046366047586 ], [ -122.38564053779713, 38.301324742356073 ], [ -122.385362161488658, 38.301806547505365 ], [ -122.385501349642894, 38.302084923813844 ], [ -122.385490642861797, 38.302406127246705 ], [ -122.385833259856852, 38.303177015485574 ], [ -122.385629831016033, 38.303412564669671 ], [ -122.385094491961269, 38.303648113853768 ], [ -122.384880356339366, 38.303530339261719 ], [ -122.385233680115505, 38.302995000206948 ], [ -122.38410946810049, 38.301742306818788 ], [ -122.383852505354199, 38.301645945788934 ], [ -122.383124444239712, 38.300039928624621 ], [ -122.383113737458615, 38.299718725191759 ], [ -122.381764683040601, 38.298551686052363 ], [ -122.381240050766934, 38.298605219957835 ], [ -122.381207930423642, 38.298294723306071 ], [ -122.380736832055447, 38.297716557126918 ], [ -122.379524289096395, 38.297042029917911 ], [ -122.379181672101339, 38.296206900992473 ], [ -122.378346543175894, 38.295982058589466 ], [ -122.37803604652413, 38.296303262022327 ], [ -122.37767201596688, 38.296538811206432 ], [ -122.377725549872366, 38.29709556382339 ], [ -122.377554241374838, 38.297438180818439 ], [ -122.377115263349921, 38.297695143564731 ], [ -122.377115263349921, 38.298134121589641 ], [ -122.376815473479255, 38.298637340301127 ], [ -122.376087412364768, 38.299087025107134 ], [ -122.375851863180671, 38.299815086221621 ], [ -122.375423591936851, 38.300286184589815 ], [ -122.375380764812462, 38.299429642102183 ], [ -122.376130239489157, 38.298069880903071 ], [ -122.376558510732963, 38.29687072142039 ], [ -122.376205186956824, 38.296089126400425 ], [ -122.375562780091101, 38.296346089146716 ], [ -122.374963200349754, 38.29709556382339 ], [ -122.374824012195518, 38.297191924853252 ], [ -122.374620583354698, 38.296967082450251 ], [ -122.374738357946754, 38.296581638330814 ], [ -122.374481395200462, 38.296078419619327 ], [ -122.376001758116004, 38.295564494126751 ], [ -122.376526390389685, 38.29524329069389 ], [ -122.376708405668296, 38.294311800738591 ], [ -122.376226600519004, 38.293915649838063 ], [ -122.376494270046393, 38.293647980310674 ], [ -122.376162359832435, 38.29306981413152 ], [ -122.37591610386724, 38.292673663230993 ], [ -122.375450358889594, 38.292534475076756 ], [ -122.374893606272636, 38.292834264947423 ], [ -122.374700884212913, 38.291731466494603 ], [ -122.373405363700371, 38.290521600230818 ], [ -122.373126987391899, 38.290350291733297 ], [ -122.372709422929177, 38.289290320404852 ], [ -122.371874294003732, 38.289161839031706 ], [ -122.371435315978815, 38.289461628902373 ], [ -122.371531677008676, 38.290318171390005 ], [ -122.371820760098259, 38.290885630788061 ], [ -122.371970655033593, 38.291228247783117 ], [ -122.371146232889245, 38.290981991817922 ], [ -122.369807885252314, 38.28991131370838 ], [ -122.36920830551098, 38.290211103579054 ], [ -122.368758620704966, 38.290382412076582 ], [ -122.368737207142786, 38.290874924006971 ], [ -122.368587312207438, 38.291453090186117 ], [ -122.369111944481119, 38.291956308897603 ], [ -122.369454561476175, 38.292673663230993 ], [ -122.368672966456202, 38.289226079718247 ], [ -122.367709356157619, 38.28884063559881 ], [ -122.367267701437441, 38.292074083489652 ], [ -122.367128513283191, 38.29224539198718 ], [ -122.367364062467288, 38.292802144604138 ], [ -122.367267701437441, 38.293401724345479 ], [ -122.368563221949984, 38.294450988892834 ], [ -122.36723558109415, 38.29436533464407 ], [ -122.367074979377719, 38.294707951639118 ], [ -122.36739618281058, 38.295821456873043 ], [ -122.366732362382663, 38.295660855156612 ], [ -122.366518226760761, 38.295253997474987 ], [ -122.366486106417469, 38.294889966917744 ], [ -122.366336211482135, 38.294547349922688 ], [ -122.366379038606524, 38.293851409151486 ], [ -122.365094224875065, 38.293540912499722 ], [ -122.364323336636204, 38.293787168464917 ], [ -122.364066373889912, 38.294086958335591 ], [ -122.363498914491856, 38.294311800738591 ], [ -122.363124177153523, 38.295071982196362 ], [ -122.363134883934606, 38.295361065285938 ], [ -122.36234258213355, 38.296453156957668 ], [ -122.361668054924536, 38.297074150261203 ], [ -122.361775122735494, 38.296688706141772 ], [ -122.361850070203161, 38.296346089146716 ], [ -122.361817949859883, 38.296196194211383 ], [ -122.361935724451925, 38.295800043310848 ], [ -122.362289048228078, 38.295328944942653 ], [ -122.362653078785314, 38.294033424430111 ], [ -122.362856507626134, 38.293391017564389 ], [ -122.362749439815175, 38.293209002285764 ], [ -122.361603814237967, 38.293412431126576 ], [ -122.361346851491675, 38.293144761599194 ], [ -122.362246221103689, 38.29268437001209 ], [ -122.362824387282842, 38.292266805549367 ], [ -122.362631665223134, 38.29180641396227 ], [ -122.36256742453655, 38.291517330872693 ], [ -122.362032085481786, 38.291688639370221 ], [ -122.362385409257939, 38.291067646066686 ], [ -122.361314731148397, 38.290746442633825 ], [ -122.361978551576314, 38.290500186668631 ], [ -122.363006402561467, 38.289761418773047 ], [ -122.363038522904759, 38.28909759834513 ], [ -122.363541741616231, 38.288669327101317 ], [ -122.363349019556523, 38.288166108389831 ], [ -122.363488207710759, 38.287984093111213 ], [ -122.363338312775426, 38.287673596459442 ], [ -122.363734463675954, 38.287416633713157 ], [ -122.363370433118718, 38.286774226847427 ], [ -122.363798704362537, 38.286453023414566 ], [ -122.363520328054051, 38.286024752170754 ], [ -122.362856507626134, 38.285853443673226 ], [ -122.362663785566426, 38.285211036807503 ], [ -122.362449649944509, 38.285211036807503 ], [ -122.362363995695745, 38.285832030111031 ], [ -122.361999965138509, 38.286088992857323 ], [ -122.362128446511647, 38.286667159036476 ], [ -122.361496746427051, 38.286934828563858 ], [ -122.361453919302605, 38.287266738777859 ], [ -122.360983847282839, 38.287513490104978 ], [ -122.361167003266189, 38.288044130692903 ], [ -122.360522429347299, 38.287625415944554 ], [ -122.360127396282735, 38.287577729589678 ], [ -122.360034250289843, 38.287257949779246 ], [ -122.36016826597924, 38.28679217872962 ], [ -122.359924054214247, 38.286565821489518 ], [ -122.35954546691606, 38.286466946844584 ], [ -122.359651831359344, 38.286272102474754 ], [ -122.359510638533777, 38.285965864874754 ], [ -122.359154874766674, 38.285846736974648 ], [ -122.358627547320978, 38.286043255964437 ], [ -122.358061487026532, 38.286332248430398 ], [ -122.356927887712843, 38.287155430222846 ], [ -122.356702915906453, 38.287150193209975 ], [ -122.356362273955938, 38.287307573051557 ], [ -122.356366918844159, 38.286668770442731 ], [ -122.355944546404245, 38.286306329081725 ], [ -122.356552998154285, 38.286001532140176 ], [ -122.356728460729215, 38.2856279051217 ], [ -122.35665264428826, 38.285320274916586 ], [ -122.356973939372722, 38.284899022490478 ], [ -122.356891508117329, 38.284689174113268 ], [ -122.356344108024771, 38.284408028225357 ], [ -122.354930633757718, 38.284748780202762 ], [ -122.354740154667226, 38.284679397951145 ], [ -122.355499680526506, 38.283781895965639 ], [ -122.355828789515527, 38.283054166491773 ], [ -122.355532961604069, 38.282871112066729 ], [ -122.354747511508194, 38.282925634216625 ], [ -122.354323852465427, 38.283269559992917 ], [ -122.35396465611548, 38.283389695918906 ], [ -122.353372000772112, 38.28325386425491 ], [ -122.352210507788229, 38.28362175083717 ], [ -122.35256287199131, 38.283202871749594 ], [ -122.352709289538396, 38.282968433901559 ], [ -122.352953513775262, 38.282746698409774 ], [ -122.353241921041814, 38.282392853854532 ], [ -122.353133752465212, 38.282054106352966 ], [ -122.353537018650783, 38.281748218302454 ], [ -122.35431583116241, 38.281731573357739 ], [ -122.354348428695872, 38.281366072653007 ], [ -122.355101402279345, 38.281302565904134 ], [ -122.355383885148768, 38.280879540802857 ], [ -122.355179318217893, 38.280375438544993 ], [ -122.355026435176143, 38.279640899561514 ], [ -122.354655551960121, 38.279020645754848 ], [ -122.354382225151753, 38.278875689552805 ], [ -122.353931291332145, 38.280222024536883 ], [ -122.353324779012439, 38.279549414932589 ], [ -122.352933388626738, 38.280035577593296 ], [ -122.352109330117074, 38.280774796877459 ], [ -122.351439910267359, 38.280585450997613 ], [ -122.351132842639643, 38.27995010504111 ], [ -122.351417803883834, 38.279549054253607 ], [ -122.3510813263388, 38.279030719160772 ], [ -122.352128778542465, 38.278578581736561 ], [ -122.351813498193053, 38.277846489967573 ], [ -122.351852590686789, 38.277403127154116 ], [ -122.351341364557882, 38.277512861199831 ], [ -122.350858226220481, 38.277555409027777 ], [ -122.350730152196675, 38.278219077620598 ], [ -122.349740572448781, 38.278493520035447 ], [ -122.34992485460387, 38.279738848568869 ], [ -122.348770441764387, 38.279524515954115 ], [ -122.347732562073091, 38.280008538174762 ], [ -122.348440373752027, 38.280831064417946 ], [ -122.349958592933831, 38.281215961999699 ], [ -122.350246728088649, 38.281643624362715 ], [ -122.348873361070872, 38.282560284408781 ], [ -122.34481637149527, 38.280617170722621 ], [ -122.344238205316117, 38.281666435269983 ], [ -122.344972674448854, 38.282371226499897 ], [ -122.347322790511043, 38.2835733498924 ], [ -122.346393515800557, 38.284131427804105 ], [ -122.345090837578539, 38.284518085231056 ], [ -122.347806279604939, 38.285279985734995 ], [ -122.348773970275403, 38.284989183599265 ], [ -122.348622145300567, 38.286007466488861 ], [ -122.348937982043495, 38.286472882662729 ], [ -122.348863716341796, 38.28736766001095 ], [ -122.349155407840513, 38.287958022318477 ], [ -122.348183471341017, 38.287612254489929 ], [ -122.347686063586394, 38.286701297422546 ], [ -122.346807594323835, 38.287648239548687 ], [ -122.345997884317384, 38.286872826058122 ], [ -122.34556811525718, 38.287182126556417 ], [ -122.345321340404396, 38.287401668733771 ], [ -122.346064690754375, 38.288350299423989 ], [ -122.346461124706352, 38.289279231171733 ], [ -122.34752719452176, 38.289459567091107 ], [ -122.347584844909733, 38.289918385106127 ], [ -122.348645244835481, 38.290248063734587 ], [ -122.349002450179555, 38.290066853524259 ], [ -122.349751407565179, 38.290125449330347 ], [ -122.350462726758636, 38.289654658970484 ], [ -122.351223914596119, 38.290337932995229 ], [ -122.349772469036722, 38.291755888317539 ], [ -122.351491140733842, 38.291643211142002 ], [ -122.350898594142279, 38.292808287979717 ], [ -122.353254237074367, 38.29381044312602 ], [ -122.351730276168013, 38.293980419390337 ], [ -122.351704570580495, 38.295656489862523 ], [ -122.347869139794696, 38.295608615437146 ], [ -122.339402819284956, 38.298116997170176 ], [ -122.316267294879765, 38.29774425614378 ], [ -122.314266536100277, 38.301412002135827 ], [ -122.30697353378882, 38.299688053500269 ], [ -122.302447369177202, 38.299846737230673 ], [ -122.301744921818511, 38.295682878950856 ], [ -122.302066774859838, 38.291527060198455 ], [ -122.30063431283007, 38.285740911435546 ], [ -122.300425028327368, 38.281797562195415 ], [ -122.292556844679268, 38.282116472609729 ], [ -122.284844712718026, 38.281316112709746 ], [ -122.28244609318233, 38.278080517240809 ], [ -122.282568984348657, 38.275896627964691 ], [ -122.283717865274014, 38.274074090406465 ], [ -122.287270958096499, 38.271870280492408 ], [ -122.286320225582344, 38.266877813315993 ], [ -122.284779992305175, 38.264971943935194 ], [ -122.287132232764947, 38.261249097482491 ], [ -122.284376049884202, 38.258140641472288 ], [ -122.284398753393091, 38.255230593502112 ], [ -122.285336823494205, 38.25363342575406 ], [ -122.285329767454002, 38.25083760094514 ], [ -122.28510182595754, 38.246013823700714 ], [ -122.287973450439154, 38.2383532096529 ], [ -122.288752223762842, 38.232916887595628 ], [ -122.299518588961504, 38.230109841762463 ], [ -122.30101665736737, 38.228481024936805 ], [ -122.306611400276822, 38.226799574301367 ], [ -122.311082365443355, 38.221252460828808 ], [ -122.311210888597103, 38.216326519835746 ], [ -122.307531059961335, 38.209295751841047 ], [ -122.328552873321499, 38.215467902717798 ], [ -122.332227971237415, 38.215169841171353 ], [ -122.334583072175718, 38.214257121350805 ], [ -122.350138031802331, 38.213600843680155 ], [ -122.369965798967556, 38.216617117811502 ], [ -122.379463797625277, 38.219534469160905 ], [ -122.383313696290728, 38.219402520729865 ], [ -122.394770180271323, 38.221467032831619 ], [ -122.401036617982328, 38.223872488486279 ], [ -122.406051186366611, 38.227572110752384 ], [ -122.410331732085069, 38.230377571200258 ], [ -122.4315273303244, 38.230106192284147 ], [ -122.429575814022925, 38.226430808593065 ], [ -122.429783882761555, 38.216871469195638 ], [ -122.427755476586626, 38.210135521496184 ], [ -122.436414487898915, 38.198774346092591 ], [ -122.437674765471982, 38.187822086906976 ], [ -122.440147599665153, 38.185369128876609 ], [ -122.439668795244742, 38.181546171745993 ], [ -122.445481168193496, 38.177813739242829 ], [ -122.446548463770895, 38.173344366424651 ], [ -122.451142301266287, 38.164712860328962 ], [ -122.447615493081486, 38.151355503668078 ], [ -122.448820025215724, 38.151809662337683 ], [ -122.473640192202453, 38.194483397027525 ], [ -122.544616922933756, 38.284734606702045 ], [ -122.524343541894822, 38.284666126706199 ], [ -122.522244233636656, 38.284512371395444 ], [ -122.521503576014922, 38.283561715359944 ], [ -122.519219927603245, 38.282097037188372 ], [ -122.518584425765127, 38.280155373881648 ], [ -122.516357305356607, 38.277144569529625 ], [ -122.514633454990701, 38.273811639462075 ], [ -122.510995214821889, 38.271606868243325 ], [ -122.509657487444954, 38.271441496941257 ], [ -122.508691350312958, 38.270455508046908 ], [ -122.506990059510755, 38.270044755418049 ], [ -122.505642058068304, 38.270584226994188 ], [ -122.503400819382605, 38.270364147534941 ], [ -122.500637566390466, 38.271570622262672 ], [ -122.495920123948267, 38.27252746653442 ], [ -122.493519048336253, 38.272652730339949 ], [ -122.490747441725105, 38.27387218385109 ], [ -122.489720993556347, 38.274190962486777 ], [ -122.48887730788735, 38.273628095477612 ], [ -122.487775834825555, 38.27381084830585 ], [ -122.485900966266044, 38.27356221438496 ], [ -122.484896962940397, 38.274191872020069 ], [ -122.484014781609645, 38.273975839150111 ], [ -122.473514459799929, 38.277431155093282 ], [ -122.470780633341519, 38.277057768178786 ], [ -122.4698743724651, 38.276744193382619 ], [ -122.460287012649573, 38.275746237190049 ], [ -122.450497165842634, 38.274811097031503 ], [ -122.448835025274576, 38.273713794168849 ], [ -122.444153096484683, 38.27321944198053 ], [ -122.427079751655356, 38.271454029084502 ], [ -122.424128933029294, 38.271550407557818 ], [ -122.419047777537074, 38.269882943791373 ], [ -122.411847646517103, 38.269651293163129 ], [ -122.410240991323008, 38.268384522553184 ], [ -122.408495235936385, 38.265072710745919 ], [ -122.40468035609922, 38.26363228926084 ], [ -122.398566634155358, 38.261518608537905 ], [ -122.396022317948265, 38.257789305803207 ], [ -122.39357091144872, 38.253492166755713 ], [ -122.383320101063092, 38.250863612975195 ], [ -122.38091644745775, 38.25038369153885 ], [ -122.379079957680872, 38.250692374556003 ] ] ] } }
]
}
